{
  "_note": "2026にっぽん応援ツーリング 公式スポット (XLSX由来)。category: pole_main(本土4極点) / pole_area(エリア4極点) / tourism(観光応援)。subtype: ジオパーク / 風スポット",
  "generated": "2026-05-01",
  "source": "2026にっぽん応援ツーリング_スポット一覧.xlsx",
  "spots": [
    {
      "no": 1,
      "region": "北海道",
      "pref": "北海道",
      "name": "日本本土最北端：宗谷岬",
      "category": "pole_main",
      "subtype": "",
      "addr": "〒098-6758 北海道稚内市宗谷岬",
      "lat": 45.5110199,
      "lng": 141.9430392
    },
    {
      "no": 2,
      "region": "北海道",
      "pref": "北海道",
      "name": "保存車両 ｷﾊ22 208",
      "category": "tourism",
      "subtype": "",
      "addr": "〒098-5551 北海道枝幸郡中頓別町中頓別951",
      "lat": 44.9736674,
      "lng": 142.2925816
    },
    {
      "no": 3,
      "region": "北海道",
      "pref": "北海道",
      "name": "道の駅 ☆ロマン街道しょさんべつ",
      "category": "tourism",
      "subtype": "",
      "addr": "〒078-4431 北海道苫前郡初山別村豊岬153-1",
      "lat": 44.5632801,
      "lng": 141.777507
    },
    {
      "no": 4,
      "region": "北海道",
      "pref": "北海道",
      "name": "上興部鉄道資料館",
      "category": "tourism",
      "subtype": "",
      "addr": "〒098-1421 北海道紋別郡西興部村上興部351-1",
      "lat": 44.3370491,
      "lng": 142.8725169
    },
    {
      "no": 5,
      "region": "北海道",
      "pref": "北海道",
      "name": "三毛別羆事件復元地",
      "category": "tourism",
      "subtype": "",
      "addr": "〒078-3638 北海道苫前郡苫前町三渓",
      "lat": 44.1336708,
      "lng": 141.7980057
    },
    {
      "no": 6,
      "region": "北海道",
      "pref": "北海道",
      "name": "道の駅 知床·らうす",
      "category": "tourism",
      "subtype": "",
      "addr": "〒086-1833 北海道目梨郡羅臼町本町361-1",
      "lat": 44.0173758,
      "lng": 145.1921267
    },
    {
      "no": 7,
      "region": "北海道",
      "pref": "北海道",
      "name": "博物館網走監獄",
      "category": "tourism",
      "subtype": "",
      "addr": "〒099-2421 北海道網走市呼人1-1",
      "lat": 43.9952454,
      "lng": 144.2299177
    },
    {
      "no": 8,
      "region": "北海道",
      "pref": "北海道",
      "name": "白滝ジオパーク",
      "category": "tourism",
      "subtype": "ジオパーク",
      "addr": "〒099-0111 北海道紋別郡遠軽町白滝138-1",
      "lat": 43.8867235,
      "lng": 143.1929046
    },
    {
      "no": 9,
      "region": "北海道",
      "pref": "北海道",
      "name": "道の駅 鐘のなるまち・ちっぷべつ",
      "category": "tourism",
      "subtype": "",
      "addr": "〒078-2100 北海道雨竜郡秩父別町2085-1264",
      "lat": 43.7648365,
      "lng": 141.9652301
    },
    {
      "no": 10,
      "region": "北海道",
      "pref": "北海道",
      "name": "野付半島駐車場",
      "category": "tourism",
      "subtype": "",
      "addr": "〒086-1645 北海道野付郡別海町野付123",
      "lat": 43.5672979,
      "lng": 145.3472362
    },
    {
      "no": 11,
      "region": "北海道",
      "pref": "北海道",
      "name": "拓真館",
      "category": "tourism",
      "subtype": "",
      "addr": "〒071-0474 北海道上川郡美瑛町新星 字拓進",
      "lat": 43.52988,
      "lng": 142.4893646
    },
    {
      "no": 12,
      "region": "北海道",
      "pref": "北海道",
      "name": "十勝岳ジオパーク",
      "category": "tourism",
      "subtype": "ジオパーク",
      "addr": "〒071-0235 北海道上川郡美瑛町白金",
      "lat": 43.4458432,
      "lng": 142.6501972
    },
    {
      "no": 13,
      "region": "北海道",
      "pref": "北海道",
      "name": "旧国鉄士幌線幌加駅跡",
      "category": "tourism",
      "subtype": "",
      "addr": "〒080-1402 北海道河東郡上士幌町幌加",
      "lat": 43.4484264,
      "lng": 143.148347
    },
    {
      "no": 14,
      "region": "北海道",
      "pref": "北海道",
      "name": "日本本土最東端：納沙布岬",
      "category": "pole_main",
      "subtype": "",
      "addr": "〒087-0165 北海道根室市納沙布",
      "lat": 43.3852858,
      "lng": 145.8169297
    },
    {
      "no": 15,
      "region": "北海道",
      "pref": "北海道",
      "name": "道の駅 275つきがた",
      "category": "tourism",
      "subtype": "",
      "addr": "〒061-0500 北海道樺戸郡月形町81-10",
      "lat": 43.3412195,
      "lng": 141.6796962
    },
    {
      "no": 16,
      "region": "北海道",
      "pref": "北海道",
      "name": "㈱碓氷勝三郎商店",
      "category": "tourism",
      "subtype": "",
      "addr": "〒087-0041 北海道根室市常盤町1丁目6",
      "lat": 43.331001,
      "lng": 145.580757
    },
    {
      "no": 17,
      "region": "北海道",
      "pref": "北海道",
      "name": "道の駅 ふるびら たらこミュージアム",
      "category": "tourism",
      "subtype": "",
      "addr": "〒046-0121 北海道古平郡古平町浜町40-4",
      "lat": 43.2649094,
      "lng": 140.6386746
    },
    {
      "no": 18,
      "region": "北海道",
      "pref": "北海道",
      "name": "道の駅スワン44ねむろ",
      "category": "tourism",
      "subtype": "",
      "addr": "〒086-0073 北海道根室市酪陽1番地",
      "lat": 43.261487,
      "lng": 145.4386908
    },
    {
      "no": 19,
      "region": "北海道",
      "pref": "北海道",
      "name": "三笠ジオパーク",
      "category": "tourism",
      "subtype": "ジオパーク",
      "addr": "〒068-2113 北海道三笠市幾春別錦町1丁目212-1",
      "lat": 43.2599473,
      "lng": 141.9642451
    },
    {
      "no": 20,
      "region": "北海道",
      "pref": "北海道",
      "name": "はまなすの丘公園 ヴィジターセンター",
      "category": "tourism",
      "subtype": "風スポット",
      "addr": "〒061-3371 北海道石狩市浜町29-1",
      "lat": 43.2563098,
      "lng": 141.3593258
    },
    {
      "no": 21,
      "region": "北海道",
      "pref": "北海道",
      "name": "道の駅 三笠",
      "category": "tourism",
      "subtype": "",
      "addr": "〒068-2165 北海道三笠市岡山1056",
      "lat": 43.2472313,
      "lng": 141.8040796
    },
    {
      "no": 22,
      "region": "北海道",
      "pref": "北海道",
      "name": "とかち鹿追ジオパーク",
      "category": "tourism",
      "subtype": "ジオパーク",
      "addr": "〒081-0341 北海道河東郡鹿追町瓜幕西29線28-2",
      "lat": 43.1974488,
      "lng": 143.02546
    },
    {
      "no": 23,
      "region": "北海道",
      "pref": "北海道",
      "name": "道の駅 阿寒丹頂の里",
      "category": "tourism",
      "subtype": "",
      "addr": "〒085-0245 北海道釧路市阿寒町上阿寒23線36-1",
      "lat": 43.1439472,
      "lng": 144.1454057
    },
    {
      "no": 24,
      "region": "北海道",
      "pref": "北海道",
      "name": "厚岸漁業協同組合地方卸売市場",
      "category": "tourism",
      "subtype": "",
      "addr": "〒088-1118 北海道厚岸郡厚岸町若竹1丁目5",
      "lat": 43.0395827,
      "lng": 144.8416277
    },
    {
      "no": 25,
      "region": "北海道",
      "pref": "北海道",
      "name": "道の駅 しらぬか恋問館",
      "category": "tourism",
      "subtype": "",
      "addr": "〒088-0562 北海道白糠郡白糠町恋問3丁目2-1",
      "lat": 42.9903574,
      "lng": 144.1896404
    },
    {
      "no": 26,
      "region": "北海道",
      "pref": "北海道",
      "name": "道の駅 樹海ロード日高",
      "category": "tourism",
      "subtype": "",
      "addr": "〒055-2301 北海道沙流郡日高町本町東1丁目298-1",
      "lat": 42.876876,
      "lng": 142.4420866
    },
    {
      "no": 27,
      "region": "北海道",
      "pref": "北海道",
      "name": "サッポロビール庭園",
      "category": "tourism",
      "subtype": "",
      "addr": "〒061-1405 北海道恵庭市戸磯542-1",
      "lat": 42.8655084,
      "lng": 141.6048053
    },
    {
      "no": 28,
      "region": "北海道",
      "pref": "北海道",
      "name": "名水うどん 野々傘",
      "category": "tourism",
      "subtype": "",
      "addr": "〒044-0132 北海道虻田郡京極町字更進466-5",
      "lat": 42.8277616,
      "lng": 140.8907147
    },
    {
      "no": 29,
      "region": "北海道",
      "pref": "北海道",
      "name": "道の駅 くろまつない",
      "category": "tourism",
      "subtype": "",
      "addr": "〒048-0134 北海道寿都郡黒松内町白井川8-10",
      "lat": 42.6725707,
      "lng": 140.3798082
    },
    {
      "no": 30,
      "region": "北海道",
      "pref": "北海道",
      "name": "道の駅 むかわ四季の館",
      "category": "tourism",
      "subtype": "",
      "addr": "〒054-0042 北海道勇払郡むかわ町美幸3丁目3-1",
      "lat": 42.5743366,
      "lng": 141.9260363
    },
    {
      "no": 31,
      "region": "北海道",
      "pref": "北海道",
      "name": "洞爺湖有珠山ユネスコ世界ジオパーク",
      "category": "tourism",
      "subtype": "ジオパーク",
      "addr": "〒052-0102 北海道有珠郡壮瞥町昭和新山184-5",
      "lat": 42.5394551,
      "lng": 140.8601583
    },
    {
      "no": 32,
      "region": "北海道",
      "pref": "北海道",
      "name": "道の駅 忠類",
      "category": "tourism",
      "subtype": "",
      "addr": "〒089-1701 北海道中川郡幕別町忠類白銀町384-12",
      "lat": 42.5588646,
      "lng": 143.2991486
    },
    {
      "no": 33,
      "region": "北海道",
      "pref": "北海道",
      "name": "立象山公園 立象山展望台",
      "category": "tourism",
      "subtype": "風スポット",
      "addr": "〒049-4821 北海道久遠郡せたな町瀬棚区三本杉",
      "lat": 42.4567194,
      "lng": 139.8521569
    },
    {
      "no": 34,
      "region": "北海道",
      "pref": "北海道",
      "name": "旭浜のトーチカ群(内陸部)",
      "category": "tourism",
      "subtype": "",
      "addr": "〒089-2121 北海道広尾郡大樹町旭浜",
      "lat": 42.4339365,
      "lng": 143.4012612
    },
    {
      "no": 35,
      "region": "北海道",
      "pref": "北海道",
      "name": "北海道最西端：尾花岬（太田緑地広場駐車場）",
      "category": "pole_area",
      "subtype": "",
      "addr": "〒043-0501 北海道久遠郡せたな町大成区太田",
      "lat": 42.3029326,
      "lng": 139.76702
    },
    {
      "no": 36,
      "region": "北海道",
      "pref": "北海道",
      "name": "賽の河原公園",
      "category": "tourism",
      "subtype": "",
      "addr": "〒043-1405 北海道奥尻郡奥尻町稲穂",
      "lat": 42.2513772,
      "lng": 139.5586075
    },
    {
      "no": 37,
      "region": "北海道",
      "pref": "北海道",
      "name": "アポイ岳ユネスコ世界ジオパーク",
      "category": "tourism",
      "subtype": "ジオパーク",
      "addr": "〒058-0004 北海道様似郡様似町平宇479-7",
      "lat": 42.1117153,
      "lng": 142.9886668
    },
    {
      "no": 38,
      "region": "北海道",
      "pref": "北海道",
      "name": "きじひき高原 パノラマ展望台",
      "category": "tourism",
      "subtype": "",
      "addr": "〒041-1244 北海道北斗市村山",
      "lat": 41.9439146,
      "lng": 140.6164079
    },
    {
      "no": 39,
      "region": "北海道",
      "pref": "北海道",
      "name": "道の駅 あっさぶ",
      "category": "tourism",
      "subtype": "",
      "addr": "〒043-1112 北海道檜山郡厚沢部町緑町72-1",
      "lat": 41.916638,
      "lng": 140.2163282
    },
    {
      "no": 40,
      "region": "北海道",
      "pref": "北海道",
      "name": "館城跡",
      "category": "tourism",
      "subtype": "",
      "addr": "〒043-1364 北海道檜山郡厚沢部町城丘",
      "lat": 41.8795788,
      "lng": 140.3443251
    },
    {
      "no": 41,
      "region": "北海道",
      "pref": "北海道",
      "name": "鴎島",
      "category": "tourism",
      "subtype": "風スポット",
      "addr": "〒043-0045 北海道桧山郡江差町鴎島",
      "lat": 41.8671657,
      "lng": 140.1140072
    },
    {
      "no": 42,
      "region": "北海道",
      "pref": "北海道",
      "name": "道の駅 なとわ・えさん",
      "category": "tourism",
      "subtype": "",
      "addr": "〒041-0525 北海道函館市日ノ浜町31-2",
      "lat": 41.7794481,
      "lng": 141.1016252
    },
    {
      "no": 43,
      "region": "北海道",
      "pref": "北海道",
      "name": "北海道最南端：白神岬",
      "category": "pole_area",
      "subtype": "",
      "addr": "〒049-1524 北海道松前郡松前町白神",
      "lat": 41.398269,
      "lng": 140.1995339
    },
    {
      "no": 44,
      "region": "東北",
      "pref": "青森県",
      "name": "本州最北端：大間崎",
      "category": "pole_area",
      "subtype": "",
      "addr": "〒039-4601 青森県下北郡大間町大間大間平17-1",
      "lat": 41.5465039,
      "lng": 140.9129581
    },
    {
      "no": 45,
      "region": "東北",
      "pref": "青森県",
      "name": "尻屋崎灯台",
      "category": "tourism",
      "subtype": "風スポット",
      "addr": "〒035-0111 青森県下北郡東通村尻屋字屋頭",
      "lat": 41.4303832,
      "lng": 141.4621431
    },
    {
      "no": 46,
      "region": "東北",
      "pref": "青森県",
      "name": "下北ジオパーク",
      "category": "tourism",
      "subtype": "ジオパーク",
      "addr": "〒035-0034 青森県むつ市田名部町9-9",
      "lat": 41.2964807,
      "lng": 141.2167945
    },
    {
      "no": 47,
      "region": "東北",
      "pref": "青森県",
      "name": "正立食堂",
      "category": "tourism",
      "subtype": "",
      "addr": "〒039-3501 青森県青森市浅虫坂本9-30",
      "lat": 40.9019844,
      "lng": 140.8562403
    },
    {
      "no": 48,
      "region": "東北",
      "pref": "青森県",
      "name": "道の駅みさわ",
      "category": "tourism",
      "subtype": "",
      "addr": "〒033-0164 青森県三沢市谷地頭4丁目298-652",
      "lat": 40.7870028,
      "lng": 141.3620424
    },
    {
      "no": 49,
      "region": "東北",
      "pref": "青森県",
      "name": "新設海浜公園",
      "category": "tourism",
      "subtype": "風スポット",
      "addr": "〒038-2761 青森県西津軽郡鰺ヶ沢町舞戸町北上京谷",
      "lat": 40.7810448,
      "lng": 140.224055
    },
    {
      "no": 50,
      "region": "東北",
      "pref": "青森県",
      "name": "道の駅 しちのへ",
      "category": "tourism",
      "subtype": "",
      "addr": "〒039-2501 青森県上北郡七戸町荒熊内67-94",
      "lat": 40.716674,
      "lng": 141.1552023
    },
    {
      "no": 51,
      "region": "東北",
      "pref": "青森県",
      "name": "青森県立三沢航空科学館",
      "category": "tourism",
      "subtype": "",
      "addr": "〒033-0022 青森県三沢市三沢北山158",
      "lat": 40.7081261,
      "lng": 141.3912119
    },
    {
      "no": 52,
      "region": "東北",
      "pref": "青森県",
      "name": "津軽藩ねぷた村",
      "category": "tourism",
      "subtype": "",
      "addr": "〒036-8332 青森県弘前市亀甲町61",
      "lat": 40.6111536,
      "lng": 140.4696017
    },
    {
      "no": 53,
      "region": "東北",
      "pref": "青森県",
      "name": "道の駅 ろくのへ",
      "category": "tourism",
      "subtype": "",
      "addr": "〒039-2371 青森県上北郡六戸町犬落瀬後田87-87",
      "lat": 40.6063603,
      "lng": 141.324717
    },
    {
      "no": 54,
      "region": "東北",
      "pref": "青森県",
      "name": "道の駅津軽白神 ビーチにしめや",
      "category": "tourism",
      "subtype": "",
      "addr": "〒036-1411 青森県中津軽郡西目屋村田代字神田219-1",
      "lat": 40.5778882,
      "lng": 140.3007089
    },
    {
      "no": 55,
      "region": "東北",
      "pref": "青森県",
      "name": "蕪嶋神社",
      "category": "tourism",
      "subtype": "",
      "addr": "〒031-0841 青森県八戸市鮫町鮫56-2",
      "lat": 40.5385428,
      "lng": 141.5575712
    },
    {
      "no": 56,
      "region": "東北",
      "pref": "青森県",
      "name": "種差海岸無料駐車場",
      "category": "tourism",
      "subtype": "",
      "addr": "〒031-0841 青森県八戸市鮫町棚久保14-117",
      "lat": 40.5067,
      "lng": 141.6097097
    },
    {
      "no": 57,
      "region": "東北",
      "pref": "青森県",
      "name": "道の駅いかりがせき 津軽関の庄",
      "category": "tourism",
      "subtype": "",
      "addr": "〒038-0101 青森県平川市碇ヶ関碇石13-1",
      "lat": 40.4814396,
      "lng": 140.6236935
    },
    {
      "no": 58,
      "region": "東北",
      "pref": "岩手県",
      "name": "石神の丘美術館",
      "category": "tourism",
      "subtype": "",
      "addr": "〒028-4307 岩手県岩手郡岩手町五日市10地割121-21",
      "lat": 39.9681948,
      "lng": 141.2141402
    },
    {
      "no": 59,
      "region": "東北",
      "pref": "岩手県",
      "name": "道の駅もりおか渋民 たみっと",
      "category": "tourism",
      "subtype": "",
      "addr": "〒028-4132 岩手県盛岡市渋民字渋民80-42",
      "lat": 39.8456453,
      "lng": 141.1734039
    },
    {
      "no": 60,
      "region": "東北",
      "pref": "岩手県",
      "name": "志波城跡",
      "category": "tourism",
      "subtype": "",
      "addr": "〒020-0051 岩手県盛岡市上鹿妻字方八丁47-11",
      "lat": 39.6864501,
      "lng": 141.106385
    },
    {
      "no": 61,
      "region": "東北",
      "pref": "岩手県",
      "name": "道の駅 区界高原",
      "category": "tourism",
      "subtype": "",
      "addr": "〒028-2631 岩手県宮古市区界2-434-2",
      "lat": 39.6512878,
      "lng": 141.3538029
    },
    {
      "no": 62,
      "region": "東北",
      "pref": "岩手県",
      "name": "三陸ジオパーク",
      "category": "tourism",
      "subtype": "ジオパーク",
      "addr": "〒020-0023 岩手県盛岡市内丸10-1（三陸DMOセンター）",
      "lat": 39.7035306,
      "lng": 141.1526871
    },
    {
      "no": 63,
      "region": "東北",
      "pref": "岩手県",
      "name": "本州最東端：魹ヶ崎（道の駅 みなとオアシスみやこ）",
      "category": "pole_area",
      "subtype": "",
      "addr": "〒027-0004 岩手県宮古市臨港通1-20",
      "lat": 39.639024,
      "lng": 141.9701165
    },
    {
      "no": 64,
      "region": "東北",
      "pref": "岩手県",
      "name": "道の駅 石鳥谷",
      "category": "tourism",
      "subtype": "",
      "addr": "〒028-3171 岩手県花巻市石鳥谷町中寺林7地割17-3",
      "lat": 39.4831749,
      "lng": 141.1421208
    },
    {
      "no": 65,
      "region": "東北",
      "pref": "岩手県",
      "name": "道の駅 ふなこし いぐべす",
      "category": "tourism",
      "subtype": "",
      "addr": "〒028-1371 岩手県下閉伊郡山田町船越6地割141",
      "lat": 39.437083,
      "lng": 141.97318
    },
    {
      "no": 66,
      "region": "東北",
      "pref": "岩手県",
      "name": "遠野ダム",
      "category": "tourism",
      "subtype": "",
      "addr": "〒028-0514 岩手県遠野市遠野町32地割",
      "lat": 39.3059911,
      "lng": 141.5354508
    },
    {
      "no": 67,
      "region": "東北",
      "pref": "岩手県",
      "name": "葉山めがね橋水園",
      "category": "tourism",
      "subtype": "",
      "addr": "〒029-2501 岩手県気仙郡住田町上有住字葉山",
      "lat": 39.1946912,
      "lng": 141.5833608
    },
    {
      "no": 68,
      "region": "東北",
      "pref": "岩手県",
      "name": "キャッセン 大船渡",
      "category": "tourism",
      "subtype": "",
      "addr": "〒022-0002 岩手県大船渡市大船渡町野々田12-33",
      "lat": 39.0608794,
      "lng": 141.7218696
    },
    {
      "no": 69,
      "region": "東北",
      "pref": "岩手県",
      "name": "道の駅高田松原",
      "category": "tourism",
      "subtype": "",
      "addr": "〒029-2204 岩手県陸前高田市気仙町字土手影180",
      "lat": 39.0070306,
      "lng": 141.6266685
    },
    {
      "no": 70,
      "region": "東北",
      "pref": "宮城県",
      "name": "栗駒山麓ジオパーク",
      "category": "tourism",
      "subtype": "ジオパーク",
      "addr": "〒989-5372 宮城県栗原市栗駒松倉東貴船5番地",
      "lat": 38.8642695,
      "lng": 140.9554585
    },
    {
      "no": 71,
      "region": "東北",
      "pref": "宮城県",
      "name": "道の駅 路田里はなやま",
      "category": "tourism",
      "subtype": "",
      "addr": "〒987-2511 宮城県栗原市花山字本沢北ノ前112-1",
      "lat": 38.7945662,
      "lng": 140.8444312
    },
    {
      "no": 72,
      "region": "東北",
      "pref": "宮城県",
      "name": "道の駅 津山",
      "category": "tourism",
      "subtype": "",
      "addr": "〒986-0402 宮城県登米市津山町横山細谷26-1",
      "lat": 38.6197793,
      "lng": 141.3250005
    },
    {
      "no": 73,
      "region": "東北",
      "pref": "宮城県",
      "name": "道の駅 硯上の里 おがつ",
      "category": "tourism",
      "subtype": "",
      "addr": "〒986-1335 宮城県石巻市雄勝町下雄勝2-5",
      "lat": 38.5206061,
      "lng": 141.4683216
    },
    {
      "no": 74,
      "region": "東北",
      "pref": "宮城県",
      "name": "石ノ森萬画館",
      "category": "tourism",
      "subtype": "",
      "addr": "〒986-0823 宮城県石巻市中瀬2-7",
      "lat": 38.4295764,
      "lng": 141.3107607
    },
    {
      "no": 75,
      "region": "東北",
      "pref": "宮城県",
      "name": "道の駅 東松島",
      "category": "tourism",
      "subtype": "",
      "addr": "〒981-0504 宮城県東松島市小松字上二軒堀112-5",
      "lat": 38.4242959,
      "lng": 141.1830872
    },
    {
      "no": 76,
      "region": "東北",
      "pref": "宮城県",
      "name": "大六天展望所",
      "category": "tourism",
      "subtype": "",
      "addr": "〒986-2226 宮城県牡鹿郡女川町高白浜",
      "lat": 38.4158343,
      "lng": 141.4582539
    },
    {
      "no": 77,
      "region": "東北",
      "pref": "宮城県",
      "name": "極楽山 西方寺（定義如来）",
      "category": "tourism",
      "subtype": "",
      "addr": "〒989-3213 宮城県仙台市青葉区大倉字上下1",
      "lat": 38.3650797,
      "lng": 140.6678094
    },
    {
      "no": 78,
      "region": "東北",
      "pref": "宮城県",
      "name": "蔵王ジオパーク",
      "category": "tourism",
      "subtype": "ジオパーク",
      "addr": "〒989-0916 宮城県刈田郡蔵王町遠刈田温泉字遠刈田北山18-2",
      "lat": 38.125083,
      "lng": 140.5732255
    },
    {
      "no": 79,
      "region": "東北",
      "pref": "宮城県",
      "name": "遠刈田温泉 壽の湯",
      "category": "tourism",
      "subtype": "",
      "addr": "〒989-0914 宮城県刈田郡蔵王町遠刈田温泉旭町5-1",
      "lat": 38.1232426,
      "lng": 140.5785938
    },
    {
      "no": 80,
      "region": "東北",
      "pref": "宮城県",
      "name": "道の駅 七ヶ宿",
      "category": "tourism",
      "subtype": "",
      "addr": "〒989-0537 宮城県刈田郡七ヶ宿町字上野8-1",
      "lat": 37.9827033,
      "lng": 140.4665339
    },
    {
      "no": 81,
      "region": "東北",
      "pref": "宮城県",
      "name": "阿武隈ライン舟下り",
      "category": "tourism",
      "subtype": "",
      "addr": "〒981-2171 宮城県伊具郡丸森町下滝12",
      "lat": 37.9221176,
      "lng": 140.7601448
    },
    {
      "no": 82,
      "region": "東北",
      "pref": "秋田県",
      "name": "道の駅 十和田湖",
      "category": "tourism",
      "subtype": "",
      "addr": "〒018-5511 秋田県鹿角郡小坂町十和田湖字生出1-2",
      "lat": 40.4176788,
      "lng": 140.8577279
    },
    {
      "no": 83,
      "region": "東北",
      "pref": "秋田県",
      "name": "八峰白神ジオパーク",
      "category": "tourism",
      "subtype": "ジオパーク",
      "addr": "〒018-2641 秋田県山本郡八峰町八森字中浜196-1",
      "lat": 40.3693613,
      "lng": 140.0152852
    },
    {
      "no": 84,
      "region": "東北",
      "pref": "秋田県",
      "name": "道の駅 かみこあに",
      "category": "tourism",
      "subtype": "",
      "addr": "〒018-4421 秋田県北秋田郡上小阿仁村小沢田字向川原66-1",
      "lat": 40.0632224,
      "lng": 140.2971637
    },
    {
      "no": 85,
      "region": "東北",
      "pref": "秋田県",
      "name": "入道崎（入道崎灯台駐車場）",
      "category": "tourism",
      "subtype": "風スポット",
      "addr": "〒010-0675 秋田県男鹿市北浦入道崎昆布浦",
      "lat": 40.0034433,
      "lng": 139.7022337
    },
    {
      "no": 86,
      "region": "東北",
      "pref": "秋田県",
      "name": "男鹿半島・大潟ジオパーク",
      "category": "tourism",
      "subtype": "ジオパーク",
      "addr": "〒010-0684 秋田県男鹿市北浦安全寺安全寺",
      "lat": 39.9312187,
      "lng": 139.7817601
    },
    {
      "no": 87,
      "region": "東北",
      "pref": "秋田県",
      "name": "田んぼアート 八郎潟会場",
      "category": "tourism",
      "subtype": "",
      "addr": "〒018-1602 秋田県南秋田郡八郎潟町浦大町戸屋崎",
      "lat": 39.9625327,
      "lng": 140.0855863
    },
    {
      "no": 88,
      "region": "東北",
      "pref": "秋田県",
      "name": "道の駅 おが オガーレ",
      "category": "tourism",
      "subtype": "",
      "addr": "〒010-0511 秋田県男鹿市船川港船川字新浜町1-19",
      "lat": 39.8820992,
      "lng": 139.8478293
    },
    {
      "no": 89,
      "region": "東北",
      "pref": "秋田県",
      "name": "なまはげ立像",
      "category": "tourism",
      "subtype": "",
      "addr": "〒010-0535 秋田県男鹿市船川港本山門前垂水",
      "lat": 39.864772,
      "lng": 139.7542383
    },
    {
      "no": 90,
      "region": "東北",
      "pref": "秋田県",
      "name": "道の駅 てんのう",
      "category": "tourism",
      "subtype": "",
      "addr": "〒010-0201 秋田県潟上市天王字江川上谷地109-2",
      "lat": 39.8571625,
      "lng": 140.010178
    },
    {
      "no": 91,
      "region": "東北",
      "pref": "秋田県",
      "name": "秋田大学鉱業博物館",
      "category": "tourism",
      "subtype": "",
      "addr": "〒010-0852 秋田県秋田市手形大沢28-2",
      "lat": 39.7291973,
      "lng": 140.1366088
    },
    {
      "no": 92,
      "region": "東北",
      "pref": "秋田県",
      "name": "滝川精肉店",
      "category": "tourism",
      "subtype": "",
      "addr": "〒015-0075 秋田県由利本荘市花畑町4丁目45",
      "lat": 39.3869916,
      "lng": 140.0551502
    },
    {
      "no": 93,
      "region": "東北",
      "pref": "秋田県",
      "name": "横手市黒川のイチョウ並木",
      "category": "tourism",
      "subtype": "",
      "addr": "〒013-0826 秋田県横手市黒川福柳",
      "lat": 39.3496931,
      "lng": 140.5019559
    },
    {
      "no": 94,
      "region": "東北",
      "pref": "秋田県",
      "name": "鳥海山・飛島ジオパーク",
      "category": "tourism",
      "subtype": "ジオパーク",
      "addr": "〒018-0121 秋田県にかほ市象潟町大塩越36-1",
      "lat": 39.2191508,
      "lng": 139.8998453
    },
    {
      "no": 95,
      "region": "東北",
      "pref": "秋田県",
      "name": "道の駅 うご 端縫いの郷",
      "category": "tourism",
      "subtype": "",
      "addr": "〒012-1131 秋田県雄勝郡羽後町西馬音内中野200",
      "lat": 39.2007261,
      "lng": 140.4130427
    },
    {
      "no": 96,
      "region": "東北",
      "pref": "秋田県",
      "name": "鳥海山展望台（鳥海鉾立ビジターセンター）",
      "category": "tourism",
      "subtype": "風スポット",
      "addr": "〒018-0153 秋田県にかほ市象潟町小滝字鉾立",
      "lat": 39.1227771,
      "lng": 139.9908527
    },
    {
      "no": 97,
      "region": "東北",
      "pref": "秋田県",
      "name": "ゆざわジオパーク",
      "category": "tourism",
      "subtype": "ジオパーク",
      "addr": "〒012-0824 秋田県湯沢市佐竹町1-1",
      "lat": 39.1642985,
      "lng": 140.4957046
    },
    {
      "no": 98,
      "region": "東北",
      "pref": "山形県",
      "name": "土門拳写真美術館",
      "category": "tourism",
      "subtype": "",
      "addr": "〒998-0055 山形県酒田市飯森山2丁目13",
      "lat": 38.8912434,
      "lng": 139.8228703
    },
    {
      "no": 99,
      "region": "東北",
      "pref": "山形県",
      "name": "新庄市エコロジーガーデン「原蚕の杜」",
      "category": "tourism",
      "subtype": "",
      "addr": "〒996-0091 山形県新庄市十日町6000-1",
      "lat": 38.7816435,
      "lng": 140.3105427
    },
    {
      "no": 100,
      "region": "東北",
      "pref": "山形県",
      "name": "道の駅 もがみ あっつぇ",
      "category": "tourism",
      "subtype": "",
      "addr": "〒999-6212 山形県最上郡最上町大字下字柳ノ原1469-50",
      "lat": 38.7599777,
      "lng": 140.4312168
    },
    {
      "no": 101,
      "region": "東北",
      "pref": "山形県",
      "name": "鶴岡公園",
      "category": "tourism",
      "subtype": "",
      "addr": "〒997-0035 山形県鶴岡市馬場町4-1",
      "lat": 38.7282665,
      "lng": 139.8245395
    },
    {
      "no": 102,
      "region": "東北",
      "pref": "山形県",
      "name": "最上川 千本だんご",
      "category": "tourism",
      "subtype": "",
      "addr": "〒999-4111 山形県北村山郡大石田町乙76",
      "lat": 38.5892523,
      "lng": 140.3711444
    },
    {
      "no": 103,
      "region": "東北",
      "pref": "山形県",
      "name": "鼠ヶ関 地続きの島 （マリンパークねずがせき 駐車場）",
      "category": "tourism",
      "subtype": "風スポット",
      "addr": "〒999-7126 山形県鶴岡市鼠ヶ関字孕",
      "lat": 38.556725,
      "lng": 139.5448792
    },
    {
      "no": 104,
      "region": "東北",
      "pref": "山形県",
      "name": "寒河江ダム 駐車場",
      "category": "tourism",
      "subtype": "",
      "addr": "〒990-0732 山形県西村山郡西川町砂子関",
      "lat": 38.4560407,
      "lng": 140.030774
    },
    {
      "no": 105,
      "region": "東北",
      "pref": "山形県",
      "name": "道の駅 にしかわ",
      "category": "tourism",
      "subtype": "",
      "addr": "〒990-0742 山形県西村山郡西川町水沢2304",
      "lat": 38.436219,
      "lng": 140.0995571
    },
    {
      "no": 106,
      "region": "東北",
      "pref": "山形県",
      "name": "道の駅 白い森おぐに",
      "category": "tourism",
      "subtype": "",
      "addr": "〒999-1363 山形県西置賜郡小国町小坂町616-1",
      "lat": 38.072967,
      "lng": 139.7307447
    },
    {
      "no": 107,
      "region": "東北",
      "pref": "山形県",
      "name": "山形県立うきたむ風土記の丘考古資料館",
      "category": "tourism",
      "subtype": "",
      "addr": "〒992-0302 山形県東置賜郡高畠町安久津2117",
      "lat": 38.0076813,
      "lng": 140.2145412
    },
    {
      "no": 108,
      "region": "東北",
      "pref": "山形県",
      "name": "道の駅 田沢 なごみの郷",
      "category": "tourism",
      "subtype": "",
      "addr": "〒992-1583 山形県米沢市入田沢573-19",
      "lat": 37.8776269,
      "lng": 139.9842319
    },
    {
      "no": 109,
      "region": "東北",
      "pref": "福島県",
      "name": "道の駅 ふくしま",
      "category": "tourism",
      "subtype": "",
      "addr": "〒960-0251 福島県福島市大笹生月崎1-1",
      "lat": 37.8045513,
      "lng": 140.4114907
    },
    {
      "no": 110,
      "region": "東北",
      "pref": "福島県",
      "name": "へたれガンダム",
      "category": "tourism",
      "subtype": "",
      "addr": "〒960-1103 福島県福島市平石中稲場19",
      "lat": 37.7057201,
      "lng": 140.4451572
    },
    {
      "no": 111,
      "region": "東北",
      "pref": "福島県",
      "name": "磐梯山ジオパーク",
      "category": "tourism",
      "subtype": "ジオパーク",
      "addr": "〒969-3100 福島県耶麻郡猪苗代町字松峯（磐梯山ジオパーク）",
      "lat": 37.6092871,
      "lng": 140.0799657
    },
    {
      "no": 112,
      "region": "東北",
      "pref": "福島県",
      "name": "道の駅つちゆ つちゆロードパーク",
      "category": "tourism",
      "subtype": "",
      "addr": "〒960-1243 福島県福島市松川町水原字南沢41-2",
      "lat": 37.6550549,
      "lng": 140.3342436
    },
    {
      "no": 113,
      "region": "東北",
      "pref": "福島県",
      "name": "二本松バイパスドライブイン",
      "category": "tourism",
      "subtype": "",
      "addr": "〒964-0862 福島県二本松市杉田壇ノ内47",
      "lat": 37.5714384,
      "lng": 140.4185517
    },
    {
      "no": 114,
      "region": "東北",
      "pref": "福島県",
      "name": "道の駅 ばんだい",
      "category": "tourism",
      "subtype": "",
      "addr": "〒969-3301 福島県耶麻郡磐梯町大字磐梯字十王堂38",
      "lat": 37.5628259,
      "lng": 139.9866064
    },
    {
      "no": 115,
      "region": "東北",
      "pref": "福島県",
      "name": "鶴ヶ城郷土博物館",
      "category": "tourism",
      "subtype": "",
      "addr": "〒965-0873 福島県会津若松市大手町1-1",
      "lat": 37.4876446,
      "lng": 139.9297252
    },
    {
      "no": 116,
      "region": "東北",
      "pref": "福島県",
      "name": "アーカイブ広場",
      "category": "tourism",
      "subtype": "",
      "addr": "〒979-1401 福島県双葉郡双葉町中野字高田102",
      "lat": 37.4582077,
      "lng": 141.0275003
    },
    {
      "no": 117,
      "region": "東北",
      "pref": "福島県",
      "name": "ただみ･ブナと川のミュージアム(只見町 ブナセンター)",
      "category": "tourism",
      "subtype": "",
      "addr": "〒968-0421 福島県南会津郡只見町大字只見町下2590",
      "lat": 37.3414165,
      "lng": 139.312089
    },
    {
      "no": 118,
      "region": "東北",
      "pref": "福島県",
      "name": "道の駅 ひらた",
      "category": "tourism",
      "subtype": "",
      "addr": "〒963-8202 福島県石川郡平田村上蓬田字横森後160",
      "lat": 37.250098,
      "lng": 140.5604639
    },
    {
      "no": 119,
      "region": "東北",
      "pref": "福島県",
      "name": "道の駅 いわき・ら・ら・ミュウ",
      "category": "tourism",
      "subtype": "",
      "addr": "〒971-8101 福島県いわき市小名浜辰巳町43-1",
      "lat": 36.9445056,
      "lng": 140.9056271
    },
    {
      "no": 120,
      "region": "関東",
      "pref": "茨城県",
      "name": "道の駅 みわ",
      "category": "tourism",
      "subtype": "",
      "addr": "〒319-2603 茨城県常陸大宮市鳥子272",
      "lat": 36.6558574,
      "lng": 140.2800036
    },
    {
      "no": 121,
      "region": "関東",
      "pref": "茨城県",
      "name": "日鉱記念館",
      "category": "tourism",
      "subtype": "",
      "addr": "〒317-0055 茨城県日立市宮田町3585",
      "lat": 36.6319024,
      "lng": 140.600913
    },
    {
      "no": 122,
      "region": "関東",
      "pref": "茨城県",
      "name": "道の駅 かつら",
      "category": "tourism",
      "subtype": "",
      "addr": "〒311-4341 茨城県東茨城郡城里町御前山37",
      "lat": 36.544874,
      "lng": 140.3329557
    },
    {
      "no": 123,
      "region": "関東",
      "pref": "茨城県",
      "name": "道の駅 かさま",
      "category": "tourism",
      "subtype": "",
      "addr": "〒309-1621 茨城県笠間市手越22-1",
      "lat": 36.3560261,
      "lng": 140.2743814
    },
    {
      "no": 124,
      "region": "関東",
      "pref": "茨城県",
      "name": "那珂湊漁協加工直売所 魚食楽（さくら）",
      "category": "tourism",
      "subtype": "",
      "addr": "〒311-1214 茨城県ひたちなか市和田町3丁目11-11",
      "lat": 36.3408477,
      "lng": 140.5984163
    },
    {
      "no": 125,
      "region": "関東",
      "pref": "茨城県",
      "name": "大洗磯前神社",
      "category": "tourism",
      "subtype": "",
      "addr": "〒311-1301 茨城県東茨城郡大洗町磯浜町6890",
      "lat": 36.3158351,
      "lng": 140.5874772
    },
    {
      "no": 126,
      "region": "関東",
      "pref": "茨城県",
      "name": "天台宗 椎尾山 薬王院",
      "category": "tourism",
      "subtype": "",
      "addr": "〒300-4414 茨城県桜川市真壁町椎尾3178",
      "lat": 36.235591,
      "lng": 140.0767782
    },
    {
      "no": 127,
      "region": "関東",
      "pref": "茨城県",
      "name": "筑波山地域ジオパーク",
      "category": "tourism",
      "subtype": "ジオパーク",
      "addr": "〒300-4353 茨城県つくば市沼田（筑波山地域ジオパーク）",
      "lat": 36.2122346,
      "lng": 140.0921689
    },
    {
      "no": 128,
      "region": "関東",
      "pref": "茨城県",
      "name": "道の駅 さかい",
      "category": "tourism",
      "subtype": "",
      "addr": "〒306-0433 茨城県猿島郡境町1341-1",
      "lat": 36.102998,
      "lng": 139.7956504
    },
    {
      "no": 129,
      "region": "関東",
      "pref": "茨城県",
      "name": "道の駅 常総",
      "category": "tourism",
      "subtype": "",
      "addr": "〒300-2508 茨城県常総市むすび町1番地",
      "lat": 36.083712,
      "lng": 139.985382
    },
    {
      "no": 130,
      "region": "関東",
      "pref": "茨城県",
      "name": "神栖市1000人画廊",
      "category": "tourism",
      "subtype": "",
      "addr": "〒314-0111 茨城県神栖市南浜（千人画廊）",
      "lat": 35.8950167,
      "lng": 140.7264672
    },
    {
      "no": 131,
      "region": "関東",
      "pref": "栃木県",
      "name": "那須テディベア・ミュージアム",
      "category": "tourism",
      "subtype": "",
      "addr": "〒325-0002 栃木県那須郡那須町高久丙1185-4",
      "lat": 37.0492014,
      "lng": 140.039582
    },
    {
      "no": 132,
      "region": "関東",
      "pref": "栃木県",
      "name": "森林の駅/もみじ谷大吊橋",
      "category": "tourism",
      "subtype": "",
      "addr": "〒329-2801 栃木県那須塩原市関谷1425-60",
      "lat": 36.9549769,
      "lng": 139.8794436
    },
    {
      "no": 133,
      "region": "関東",
      "pref": "栃木県",
      "name": "道の駅ばとう",
      "category": "tourism",
      "subtype": "",
      "addr": "〒324-0617 栃木県那須郡那珂川町北向田181-2",
      "lat": 36.74758,
      "lng": 140.149897
    },
    {
      "no": 134,
      "region": "関東",
      "pref": "栃木県",
      "name": "道の駅 きつれがわ",
      "category": "tourism",
      "subtype": "",
      "addr": "〒329-1412 栃木県さくら市喜連川4145-10",
      "lat": 36.7154994,
      "lng": 140.0326364
    },
    {
      "no": 135,
      "region": "関東",
      "pref": "栃木県",
      "name": "山あげ会館",
      "category": "tourism",
      "subtype": "",
      "addr": "〒321-0628 栃木県那須烏山市金井2丁目5-26",
      "lat": 36.6538038,
      "lng": 140.1547461
    },
    {
      "no": 136,
      "region": "関東",
      "pref": "栃木県",
      "name": "足尾銅山記念館",
      "category": "tourism",
      "subtype": "",
      "addr": "〒321-1512 栃木県日光市足尾町掛水2281-1",
      "lat": 36.6421953,
      "lng": 139.4499227
    },
    {
      "no": 137,
      "region": "関東",
      "pref": "栃木県",
      "name": "道の駅 たかねざわ 元気あっぷむら",
      "category": "tourism",
      "subtype": "",
      "addr": "〒329-1212 栃木県塩谷郡高根沢町大字上柏崎588-1",
      "lat": 36.632575,
      "lng": 140.0532096
    },
    {
      "no": 138,
      "region": "関東",
      "pref": "栃木県",
      "name": "道の駅 にしかた",
      "category": "tourism",
      "subtype": "",
      "addr": "〒322-0604 栃木県栃木市西方町元269-1",
      "lat": 36.4666386,
      "lng": 139.7431467
    },
    {
      "no": 139,
      "region": "関東",
      "pref": "栃木県",
      "name": "道の駅 ましこ",
      "category": "tourism",
      "subtype": "",
      "addr": "〒321-4225 栃木県芳賀郡益子町長堤2271",
      "lat": 36.4312125,
      "lng": 140.0723238
    },
    {
      "no": 140,
      "region": "関東",
      "pref": "栃木県",
      "name": "岩下の新生姜ミュージアム",
      "category": "tourism",
      "subtype": "",
      "addr": "〒328-0034 栃木県栃木市本町1-25",
      "lat": 36.3745001,
      "lng": 139.7403717
    },
    {
      "no": 141,
      "region": "関東",
      "pref": "群馬県",
      "name": "道の駅 尾瀬かたしな",
      "category": "tourism",
      "subtype": "",
      "addr": "〒378-0415 群馬県利根郡片品村大字鎌田3967-1",
      "lat": 36.7727941,
      "lng": 139.2258384
    },
    {
      "no": 142,
      "region": "関東",
      "pref": "群馬県",
      "name": "迦葉山龍華院弥勒寺",
      "category": "tourism",
      "subtype": "",
      "addr": "〒378-0071 群馬県沼田市上発知町445",
      "lat": 36.7514128,
      "lng": 139.0628794
    },
    {
      "no": 143,
      "region": "関東",
      "pref": "群馬県",
      "name": "道の駅 こもち",
      "category": "tourism",
      "subtype": "",
      "addr": "〒377-0204 群馬県渋川市白井2318-1",
      "lat": 36.5147804,
      "lng": 139.0167799
    },
    {
      "no": 144,
      "region": "関東",
      "pref": "群馬県",
      "name": "愛妻の丘",
      "category": "tourism",
      "subtype": "",
      "addr": "〒377-1614 群馬県吾妻郡嬬恋村田代字大横平2000の内",
      "lat": 36.5054917,
      "lng": 138.4589737
    },
    {
      "no": 145,
      "region": "関東",
      "pref": "群馬県",
      "name": "道の駅 くろほね・やまびこ",
      "category": "tourism",
      "subtype": "",
      "addr": "〒376-0144 群馬県桐生市黒保根町下田沢91-4",
      "lat": 36.4912395,
      "lng": 139.2716713
    },
    {
      "no": 146,
      "region": "関東",
      "pref": "群馬県",
      "name": "道の駅 まえばし赤城",
      "category": "tourism",
      "subtype": "",
      "addr": "〒371-0048 群馬県前橋市田口町36番地",
      "lat": 36.4397012,
      "lng": 139.0530662
    },
    {
      "no": 147,
      "region": "関東",
      "pref": "群馬県",
      "name": "浅間山北麓ジオパーク",
      "category": "tourism",
      "subtype": "ジオパーク",
      "addr": "〒377-1524 群馬県吾妻郡嬬恋村鎌原（見晴台）",
      "lat": 36.438005,
      "lng": 138.5277978
    },
    {
      "no": 148,
      "region": "関東",
      "pref": "群馬県",
      "name": "めがね橋",
      "category": "tourism",
      "subtype": "",
      "addr": "〒379-0307 群馬県安中市松井田町坂本",
      "lat": 36.3580585,
      "lng": 138.6982782
    },
    {
      "no": 149,
      "region": "関東",
      "pref": "群馬県",
      "name": "峠の釜めし本舗 おぎのや横川本店",
      "category": "tourism",
      "subtype": "",
      "addr": "〒379-0301 群馬県安中市松井田町横川399",
      "lat": 36.3365755,
      "lng": 138.736956
    },
    {
      "no": 150,
      "region": "関東",
      "pref": "群馬県",
      "name": "道の駅 ららん藤岡",
      "category": "tourism",
      "subtype": "",
      "addr": "〒375-0005 群馬県藤岡市中1131-8",
      "lat": 36.2724567,
      "lng": 139.0720626
    },
    {
      "no": 151,
      "region": "関東",
      "pref": "群馬県",
      "name": "下仁田ジオパーク",
      "category": "tourism",
      "subtype": "ジオパーク",
      "addr": "〒370-2615 群馬県甘楽郡下仁田町宮室87",
      "lat": 36.1971518,
      "lng": 138.7565906
    },
    {
      "no": 152,
      "region": "関東",
      "pref": "群馬県",
      "name": "神流町恐竜センター",
      "category": "tourism",
      "subtype": "",
      "addr": "〒370-1602 群馬県多野郡神流町大字神ヶ原51-2",
      "lat": 36.0919485,
      "lng": 138.8204303
    },
    {
      "no": 153,
      "region": "関東",
      "pref": "埼玉県",
      "name": "渋沢栄一記念館",
      "category": "tourism",
      "subtype": "",
      "addr": "〒366-0002 埼玉県深谷市下手計1204",
      "lat": 36.234096,
      "lng": 139.2638754
    },
    {
      "no": 154,
      "region": "関東",
      "pref": "埼玉県",
      "name": "道の駅 かわもと",
      "category": "tourism",
      "subtype": "",
      "addr": "〒369-1101 埼玉県深谷市長在家1279-2",
      "lat": 36.1515169,
      "lng": 139.2890319
    },
    {
      "no": 155,
      "region": "関東",
      "pref": "埼玉県",
      "name": "道の駅 はなぞの",
      "category": "tourism",
      "subtype": "",
      "addr": "〒369-1246 埼玉県深谷市小前田458-1",
      "lat": 36.1218809,
      "lng": 139.2272974
    },
    {
      "no": 156,
      "region": "関東",
      "pref": "埼玉県",
      "name": "美の山公園",
      "category": "tourism",
      "subtype": "",
      "addr": "〒369-1412 埼玉県秩父郡皆野町（美の山公園）",
      "lat": 36.0588542,
      "lng": 139.1139662
    },
    {
      "no": 157,
      "region": "関東",
      "pref": "埼玉県",
      "name": "道の駅 おがわまち",
      "category": "tourism",
      "subtype": "",
      "addr": "〒355-0321 埼玉県比企郡小川町大字小川1220-1",
      "lat": 36.0525721,
      "lng": 139.2808359
    },
    {
      "no": 158,
      "region": "関東",
      "pref": "埼玉県",
      "name": "道の駅 和紙の里ひがしちちぶ",
      "category": "tourism",
      "subtype": "",
      "addr": "〒355-0375 埼玉県比企郡東秩父村御堂441",
      "lat": 36.0519012,
      "lng": 139.203975
    },
    {
      "no": 159,
      "region": "関東",
      "pref": "埼玉県",
      "name": "MOTO GREEN CAFE",
      "category": "tourism",
      "subtype": "",
      "addr": "〒368-0105 埼玉県秩父郡小鹿野町377-1 夢鹿蔵 1F",
      "lat": 36.0203348,
      "lng": 139.0013456
    },
    {
      "no": 160,
      "region": "関東",
      "pref": "埼玉県",
      "name": "昭和レトロな温泉銭湯 玉川温泉",
      "category": "tourism",
      "subtype": "",
      "addr": "〒355-0342 埼玉県比企郡ときがわ町大字玉川3700",
      "lat": 36.0191491,
      "lng": 139.284036
    },
    {
      "no": 161,
      "region": "関東",
      "pref": "埼玉県",
      "name": "秩父ジオパーク",
      "category": "tourism",
      "subtype": "ジオパーク",
      "addr": "〒369-1911 埼玉県秩父市荒川贄川730-4 (秩父ジオパーク)",
      "lat": 35.9621368,
      "lng": 138.9755728
    },
    {
      "no": 162,
      "region": "関東",
      "pref": "埼玉県",
      "name": "道の駅べに花の郷おけがわ",
      "category": "tourism",
      "subtype": "",
      "addr": "〒363-0027 埼玉県桶川市川田谷4324-1",
      "lat": 35.9931517,
      "lng": 139.5269063
    },
    {
      "no": 163,
      "region": "関東",
      "pref": "埼玉県",
      "name": "入間市博物館 ALIT",
      "category": "tourism",
      "subtype": "",
      "addr": "〒358-0015 埼玉県入間市二本木100",
      "lat": 35.8013552,
      "lng": 139.366532
    },
    {
      "no": 164,
      "region": "関東",
      "pref": "千葉県",
      "name": "小林牧場 馬積み場",
      "category": "tourism",
      "subtype": "",
      "addr": "〒270-1318 千葉県印西市小林2906",
      "lat": 35.8242388,
      "lng": 140.1740967
    },
    {
      "no": 165,
      "region": "関東",
      "pref": "千葉県",
      "name": "道の駅いちかわ",
      "category": "tourism",
      "subtype": "",
      "addr": "〒272-0834 千葉県市川市国分6丁目10-1",
      "lat": 35.7497851,
      "lng": 139.9200302
    },
    {
      "no": 166,
      "region": "関東",
      "pref": "千葉県",
      "name": "銚子ジオパーク",
      "category": "tourism",
      "subtype": "ジオパーク",
      "addr": "〒288-0822 千葉県銚子市八木町1777-1",
      "lat": 35.707243,
      "lng": 140.7424163
    },
    {
      "no": 167,
      "region": "関東",
      "pref": "千葉県",
      "name": "銚子風力発電（銚子マリーナ海水浴場）",
      "category": "tourism",
      "subtype": "風スポット",
      "addr": "〒288-0025 千葉県銚子市潮見町地先（銚子マリーナ海水浴場）",
      "lat": 35.7073694,
      "lng": 140.839803
    },
    {
      "no": 168,
      "region": "関東",
      "pref": "千葉県",
      "name": "飯岡海岸",
      "category": "tourism",
      "subtype": "",
      "addr": "〒289-2714 千葉県旭市三川（飯岡海岸）",
      "lat": 35.7017353,
      "lng": 140.7060901
    },
    {
      "no": 169,
      "region": "関東",
      "pref": "千葉県",
      "name": "明治百年記念展望塔(富津岬展望台)",
      "category": "tourism",
      "subtype": "",
      "addr": "〒293-0021 千葉県富津市富津2280",
      "lat": 35.3127131,
      "lng": 139.7854089
    },
    {
      "no": 170,
      "region": "関東",
      "pref": "千葉県",
      "name": "大多喜城",
      "category": "tourism",
      "subtype": "",
      "addr": "〒298-0216 千葉県夷隅郡大多喜町大多喜481",
      "lat": 35.2858823,
      "lng": 140.2393735
    },
    {
      "no": 171,
      "region": "関東",
      "pref": "千葉県",
      "name": "道の駅 たけゆらの里・おおたき",
      "category": "tourism",
      "subtype": "",
      "addr": "〒298-0256 千葉県夷隅郡大多喜町石神855-869-5",
      "lat": 35.2549138,
      "lng": 140.2586163
    },
    {
      "no": 172,
      "region": "関東",
      "pref": "千葉県",
      "name": "鋸山美術館",
      "category": "tourism",
      "subtype": "",
      "addr": "〒299-1861 千葉県富津市金谷2146-1",
      "lat": 35.169295,
      "lng": 139.819396
    },
    {
      "no": 173,
      "region": "関東",
      "pref": "千葉県",
      "name": "道の駅 きょなん",
      "category": "tourism",
      "subtype": "",
      "addr": "〒299-1908 千葉県安房郡鋸南町吉浜517-1",
      "lat": 35.12795,
      "lng": 139.8371583
    },
    {
      "no": 174,
      "region": "関東",
      "pref": "千葉県",
      "name": "道の駅とみうら 枇杷倶楽部",
      "category": "tourism",
      "subtype": "",
      "addr": "〒299-2416 千葉県南房総市富浦町青木123-1",
      "lat": 35.0376001,
      "lng": 139.8374389
    },
    {
      "no": 175,
      "region": "関東",
      "pref": "千葉県",
      "name": "道の駅 グリーンファーム館山",
      "category": "tourism",
      "subtype": "",
      "addr": "〒294-0012 千葉県館山市伊那274",
      "lat": 35.0005816,
      "lng": 139.9067757
    },
    {
      "no": 176,
      "region": "関東",
      "pref": "東京都",
      "name": "ぎん鈴",
      "category": "tourism",
      "subtype": "",
      "addr": "〒198-0173 東京都青梅市御岳本町177 ぎん鈴旅館",
      "lat": 35.8009142,
      "lng": 139.1786127
    },
    {
      "no": 177,
      "region": "関東",
      "pref": "東京都",
      "name": "青梅鉄道公園",
      "category": "tourism",
      "subtype": "",
      "addr": "〒198-0041 東京都青梅市勝沼2丁目155",
      "lat": 35.7924974,
      "lng": 139.2633426
    },
    {
      "no": 178,
      "region": "関東",
      "pref": "東京都",
      "name": "檜原都民の森 駐車場",
      "category": "tourism",
      "subtype": "",
      "addr": "〒190-0211 東京都西多摩郡檜原村数馬7146 駐車場",
      "lat": 35.7377982,
      "lng": 139.031453
    },
    {
      "no": 179,
      "region": "関東",
      "pref": "東京都",
      "name": "国立極地研究所 南極・北極科学館",
      "category": "tourism",
      "subtype": "",
      "addr": "〒190-8518 東京都立川市緑町10-3",
      "lat": 35.7118043,
      "lng": 139.4095956
    },
    {
      "no": 180,
      "region": "関東",
      "pref": "東京都",
      "name": "東京スカイツリー",
      "category": "tourism",
      "subtype": "",
      "addr": "〒131-0045 東京都墨田区押上1丁目1-2",
      "lat": 35.7100627,
      "lng": 139.8107004
    },
    {
      "no": 181,
      "region": "関東",
      "pref": "東京都",
      "name": "井の頭恩賜公園",
      "category": "tourism",
      "subtype": "",
      "addr": "〒180-0005 東京都武蔵野市御殿山1丁目18-31",
      "lat": 35.6997476,
      "lng": 139.5737018
    },
    {
      "no": 182,
      "region": "関東",
      "pref": "東京都",
      "name": "鈴木九郎宝篋印塔(中野長者屋敷跡)",
      "category": "tourism",
      "subtype": "",
      "addr": "〒164-0012 東京都中野区本町2丁目26-6",
      "lat": 35.6937611,
      "lng": 139.6815565
    },
    {
      "no": 183,
      "region": "関東",
      "pref": "東京都",
      "name": "江戸城跡",
      "category": "tourism",
      "subtype": "",
      "addr": "〒100-8111 東京都千代田区千代田1-1",
      "lat": 35.6883712,
      "lng": 139.7544177
    },
    {
      "no": 184,
      "region": "関東",
      "pref": "東京都",
      "name": "道の駅 八王子滝山",
      "category": "tourism",
      "subtype": "",
      "addr": "〒192-0011 東京都八王子市滝山町1丁目592-2",
      "lat": 35.6866515,
      "lng": 139.341453
    },
    {
      "no": 185,
      "region": "関東",
      "pref": "東京都",
      "name": "目黒寄生虫館",
      "category": "tourism",
      "subtype": "",
      "addr": "〒153-0064 東京都目黒区下目黒4丁目1-1",
      "lat": 35.6316814,
      "lng": 139.7066661
    },
    {
      "no": 186,
      "region": "関東",
      "pref": "東京都",
      "name": "城南島海浜公園",
      "category": "tourism",
      "subtype": "",
      "addr": "〒143-0002 東京都大田区城南島4丁目2-2",
      "lat": 35.580399,
      "lng": 139.7854262
    },
    {
      "no": 187,
      "region": "関東",
      "pref": "東京都",
      "name": "伊豆大島ジオパーク",
      "category": "tourism",
      "subtype": "ジオパーク",
      "addr": "〒100-0101 東京都大島町元町神田屋敷617",
      "lat": 34.7439988,
      "lng": 139.3600165
    },
    {
      "no": 188,
      "region": "関東",
      "pref": "神奈川県",
      "name": "道の駅 清川",
      "category": "tourism",
      "subtype": "",
      "addr": "〒243-0112 神奈川県愛甲郡清川村煤ヶ谷2129",
      "lat": 35.4825243,
      "lng": 139.2771817
    },
    {
      "no": 189,
      "region": "関東",
      "pref": "神奈川県",
      "name": "道の駅 山北",
      "category": "tourism",
      "subtype": "",
      "addr": "〒258-0123 神奈川県足柄上郡山北町湯触317",
      "lat": 35.3798783,
      "lng": 139.0314478
    },
    {
      "no": 190,
      "region": "関東",
      "pref": "神奈川県",
      "name": "道の駅 足柄・金太郎のふるさと",
      "category": "tourism",
      "subtype": "",
      "addr": "〒250-0111 神奈川県南足柄市竹松1117-1",
      "lat": 35.326156,
      "lng": 139.1184123
    },
    {
      "no": 191,
      "region": "関東",
      "pref": "神奈川県",
      "name": "道の駅 湘南ちがさき",
      "category": "tourism",
      "subtype": "",
      "addr": "〒253-0064 神奈川県茅ヶ崎市柳島1546-1",
      "lat": 35.3203339,
      "lng": 139.3776043
    },
    {
      "no": 192,
      "region": "関東",
      "pref": "神奈川県",
      "name": "曽我丘陵",
      "category": "tourism",
      "subtype": "",
      "addr": "〒250-0204 神奈川県小田原市曽我谷津1175",
      "lat": 35.3087037,
      "lng": 139.2018457
    },
    {
      "no": 193,
      "region": "関東",
      "pref": "神奈川県",
      "name": "いちご よこすかポートマーケット",
      "category": "tourism",
      "subtype": "",
      "addr": "〒238-0005 神奈川県横須賀市新港町6",
      "lat": 35.2830709,
      "lng": 139.675693
    },
    {
      "no": 194,
      "region": "関東",
      "pref": "神奈川県",
      "name": "ポーラ美術館",
      "category": "tourism",
      "subtype": "",
      "addr": "〒250-0631 神奈川県足柄下郡箱根町仙石原小塚山1285",
      "lat": 35.2567066,
      "lng": 139.0212014
    },
    {
      "no": 195,
      "region": "関東",
      "pref": "神奈川県",
      "name": "箱根ジオパーク",
      "category": "tourism",
      "subtype": "ジオパーク",
      "addr": "〒250-0631 神奈川県足柄下郡箱根町仙石原1251-2",
      "lat": 35.2435342,
      "lng": 139.0196034
    },
    {
      "no": 196,
      "region": "関東",
      "pref": "神奈川県",
      "name": "よこすか関口牧場",
      "category": "tourism",
      "subtype": "",
      "addr": "〒240-0101 神奈川県横須賀市長坂4丁目13-55",
      "lat": 35.2322802,
      "lng": 139.6292186
    },
    {
      "no": 197,
      "region": "関東",
      "pref": "神奈川県",
      "name": "道の駅 箱根峠",
      "category": "tourism",
      "subtype": "",
      "addr": "〒250-0521 神奈川県足柄下郡箱根町箱根381-22",
      "lat": 35.1866107,
      "lng": 139.0156441
    },
    {
      "no": 198,
      "region": "関東",
      "pref": "神奈川県",
      "name": "東京湾要塞剱崎第一砲台跡",
      "category": "tourism",
      "subtype": "",
      "addr": "〒238-0103 神奈川県三浦市南下浦町金田",
      "lat": 35.1520982,
      "lng": 139.6789124
    },
    {
      "no": 199,
      "region": "中部",
      "pref": "新潟県",
      "name": "新潟県村上市馬下駐車場 （義経公奥州落ち伝承地)",
      "category": "tourism",
      "subtype": "風スポット",
      "addr": "〒958-0001 新潟県村上市馬下",
      "lat": 38.3519558,
      "lng": 139.4520224
    },
    {
      "no": 200,
      "region": "中部",
      "pref": "新潟県",
      "name": "佐渡ジオパーク",
      "category": "tourism",
      "subtype": "ジオパーク",
      "addr": "〒952-0431 新潟県佐渡市大小139-2 (佐渡ジオパーク)",
      "lat": 37.9378643,
      "lng": 138.3049129
    },
    {
      "no": 201,
      "region": "中部",
      "pref": "新潟県",
      "name": "道の駅 加治川",
      "category": "tourism",
      "subtype": "",
      "addr": "〒959-2411 新潟県新発田市横岡1147",
      "lat": 38.0023204,
      "lng": 139.3724582
    },
    {
      "no": 202,
      "region": "中部",
      "pref": "新潟県",
      "name": "道の駅 豊栄",
      "category": "tourism",
      "subtype": "",
      "addr": "〒950-3304 新潟県新潟市北区木崎乙3644",
      "lat": 37.9578174,
      "lng": 139.2221826
    },
    {
      "no": 203,
      "region": "中部",
      "pref": "新潟県",
      "name": "小倉千枚田",
      "category": "tourism",
      "subtype": "",
      "addr": "〒952-0205 新潟県佐渡市小倉",
      "lat": 37.9553801,
      "lng": 138.4504594
    },
    {
      "no": 204,
      "region": "中部",
      "pref": "新潟県",
      "name": "道の駅 あがの",
      "category": "tourism",
      "subtype": "",
      "addr": "〒959-2126 新潟県阿賀野市窪川原553-2",
      "lat": 37.8367065,
      "lng": 139.1654302
    },
    {
      "no": 205,
      "region": "中部",
      "pref": "新潟県",
      "name": "弥彦公園",
      "category": "tourism",
      "subtype": "風スポット",
      "addr": "〒959-0323 新潟県西蒲原郡弥彦村弥彦",
      "lat": 37.6994847,
      "lng": 138.8300798
    },
    {
      "no": 206,
      "region": "中部",
      "pref": "新潟県",
      "name": "燕市産業史料館",
      "category": "tourism",
      "subtype": "",
      "addr": "〒959-1263 新潟県燕市大曲4330-1",
      "lat": 37.6526096,
      "lng": 138.9190966
    },
    {
      "no": 207,
      "region": "中部",
      "pref": "新潟県",
      "name": "道の駅 ながおか花火館",
      "category": "tourism",
      "subtype": "",
      "addr": "〒940-2121 新潟県長岡市喜多町707",
      "lat": 37.4556134,
      "lng": 138.8047276
    },
    {
      "no": 208,
      "region": "中部",
      "pref": "新潟県",
      "name": "魚沼醸造",
      "category": "tourism",
      "subtype": "",
      "addr": "〒946-0035 新潟県魚沼市十日町1791-10",
      "lat": 37.1743602,
      "lng": 138.9373846
    },
    {
      "no": 209,
      "region": "中部",
      "pref": "新潟県",
      "name": "越後妻有 里山現代美術館 MonET",
      "category": "tourism",
      "subtype": "",
      "addr": "〒948-0003 新潟県十日町市本町6-1-71-2",
      "lat": 37.138939,
      "lng": 138.7598952
    },
    {
      "no": 210,
      "region": "中部",
      "pref": "新潟県",
      "name": "道の駅 マリンドリーム能生",
      "category": "tourism",
      "subtype": "",
      "addr": "〒949-1351 新潟県糸魚川市能生小泊3596-2",
      "lat": 37.1136406,
      "lng": 138.0044408
    },
    {
      "no": 211,
      "region": "中部",
      "pref": "新潟県",
      "name": "ヒスイ海岸（もしもしピット 国道8号上り 糸魚川市押上）",
      "category": "tourism",
      "subtype": "風スポット",
      "addr": "〒941-0051 新潟県糸魚川市押上2丁目8-3",
      "lat": 37.0506262,
      "lng": 137.8783797
    },
    {
      "no": 212,
      "region": "中部",
      "pref": "新潟県",
      "name": "苗場山麓ジオパーク",
      "category": "tourism",
      "subtype": "ジオパーク",
      "addr": "〒949-8201 新潟県中魚沼郡津南町下船渡乙835",
      "lat": 37.043071,
      "lng": 138.6731916
    },
    {
      "no": 213,
      "region": "中部",
      "pref": "新潟県",
      "name": "糸魚川ユネスコ世界ジオパーク",
      "category": "tourism",
      "subtype": "ジオパーク",
      "addr": "〒949-0531 新潟県糸魚川市根小屋2482 (フォッサマグナパーク)",
      "lat": 36.9696488,
      "lng": 137.872161
    },
    {
      "no": 214,
      "region": "中部",
      "pref": "新潟県",
      "name": "清津峡 普通車 無料駐車場",
      "category": "tourism",
      "subtype": "",
      "addr": "〒949-8433 新潟県十日町市小出癸2113",
      "lat": 36.9744333,
      "lng": 138.7490677
    },
    {
      "no": 215,
      "region": "中部",
      "pref": "富山県",
      "name": "道の駅 KOKOくろべ",
      "category": "tourism",
      "subtype": "",
      "addr": "〒938-0041 富山県黒部市堀切925-1",
      "lat": 36.8776395,
      "lng": 137.4283661
    },
    {
      "no": 216,
      "region": "中部",
      "pref": "富山県",
      "name": "くろべ牧場まきばの風",
      "category": "tourism",
      "subtype": "",
      "addr": "〒938-0864 富山県黒部市宇奈月町栃屋字広畑4番地",
      "lat": 36.8484656,
      "lng": 137.5078547
    },
    {
      "no": 217,
      "region": "中部",
      "pref": "富山県",
      "name": "魚津埋没林博物館",
      "category": "tourism",
      "subtype": "",
      "addr": "〒937-0067 富山県魚津市釈迦堂814",
      "lat": 36.8224611,
      "lng": 137.39501
    },
    {
      "no": 218,
      "region": "中部",
      "pref": "富山県",
      "name": "道の駅 雨晴",
      "category": "tourism",
      "subtype": "",
      "addr": "〒933-0133 富山県高岡市太田24-74",
      "lat": 36.8149384,
      "lng": 137.0414904
    },
    {
      "no": 219,
      "region": "中部",
      "pref": "富山県",
      "name": "富山新港展望台",
      "category": "tourism",
      "subtype": "",
      "addr": "〒934-0032 富山県射水市片口292-2",
      "lat": 36.7647693,
      "lng": 137.1139605
    },
    {
      "no": 220,
      "region": "中部",
      "pref": "富山県",
      "name": "道の駅 まるごと射水",
      "category": "tourism",
      "subtype": "",
      "addr": "〒934-0049 富山県射水市鏡宮296",
      "lat": 36.7519857,
      "lng": 137.0849052
    },
    {
      "no": 221,
      "region": "中部",
      "pref": "富山県",
      "name": "増山城跡",
      "category": "tourism",
      "subtype": "",
      "addr": "〒939-1411 富山県砺波市増山",
      "lat": 36.6513155,
      "lng": 137.0408354
    },
    {
      "no": 222,
      "region": "中部",
      "pref": "富山県",
      "name": "立山黒部ジオパーク",
      "category": "tourism",
      "subtype": "ジオパーク",
      "addr": "〒930-1406 富山県中新川郡立山町芦峅寺93-1 (立山博物館)",
      "lat": 36.5825459,
      "lng": 137.3936029
    },
    {
      "no": 223,
      "region": "中部",
      "pref": "富山県",
      "name": "道の駅 福光",
      "category": "tourism",
      "subtype": "",
      "addr": "〒939-1625 富山県南砺市中ノ江21",
      "lat": 36.5662194,
      "lng": 136.8622195
    },
    {
      "no": 224,
      "region": "中部",
      "pref": "富山県",
      "name": "道の駅 細入",
      "category": "tourism",
      "subtype": "",
      "addr": "〒939-2186 富山県富山市片掛3-5",
      "lat": 36.4885933,
      "lng": 137.2381547
    },
    {
      "no": 225,
      "region": "中部",
      "pref": "富山県",
      "name": "高清水林道展望広場",
      "category": "tourism",
      "subtype": "",
      "addr": "〒939-1807 富山県南砺市北野（高清水林道展望広場）",
      "lat": 36.4780714,
      "lng": 136.9290766
    },
    {
      "no": 226,
      "region": "中部",
      "pref": "石川県",
      "name": "ふる里キリコ橋",
      "category": "tourism",
      "subtype": "",
      "addr": "〒927-0604 石川県鳳珠郡能登町栗川尻",
      "lat": 37.3395447,
      "lng": 137.2499148
    },
    {
      "no": 227,
      "region": "中部",
      "pref": "石川県",
      "name": "道の駅 桜峠",
      "category": "tourism",
      "subtype": "",
      "addr": "〒928-0334 石川県鳳珠郡能登町字當目2-24-24",
      "lat": 37.3317669,
      "lng": 137.0111746
    },
    {
      "no": 228,
      "region": "中部",
      "pref": "石川県",
      "name": "旧能登線 波並駅跡",
      "category": "tourism",
      "subtype": "",
      "addr": "〒927-0442 石川県鳳珠郡能登町波並 (旧能登線波並駅跡)",
      "lat": 37.2878187,
      "lng": 137.1154334
    },
    {
      "no": 229,
      "region": "中部",
      "pref": "石川県",
      "name": "石川県能登島ガラス美術館",
      "category": "tourism",
      "subtype": "",
      "addr": "〒926-0211 石川県七尾市能登島向田町125部10",
      "lat": 37.137516,
      "lng": 136.9965712
    },
    {
      "no": 230,
      "region": "中部",
      "pref": "石川県",
      "name": "道の駅 いおり",
      "category": "tourism",
      "subtype": "",
      "addr": "〒926-0366 石川県七尾市庵町笹ヶ谷地3-1",
      "lat": 37.0283689,
      "lng": 137.0470699
    },
    {
      "no": 231,
      "region": "中部",
      "pref": "石川県",
      "name": "道の駅 めぐみ白山",
      "category": "tourism",
      "subtype": "",
      "addr": "〒924-0033 石川県白山市宮丸町2183",
      "lat": 36.5006684,
      "lng": 136.5470779
    },
    {
      "no": 232,
      "region": "中部",
      "pref": "石川県",
      "name": "道の駅 しらやまさん",
      "category": "tourism",
      "subtype": "",
      "addr": "〒923-1208 石川県能美市和佐谷町200",
      "lat": 36.43634,
      "lng": 136.6302222
    },
    {
      "no": 233,
      "region": "中部",
      "pref": "石川県",
      "name": "道の駅 こまつ木場潟",
      "category": "tourism",
      "subtype": "",
      "addr": "〒923-0843 石川県小松市蓮代寺町ニ2-2",
      "lat": 36.3702585,
      "lng": 136.4629402
    },
    {
      "no": 234,
      "region": "中部",
      "pref": "石川県",
      "name": "鳥越城跡",
      "category": "tourism",
      "subtype": "",
      "addr": "〒920-2361 石川県白山市三坂町1",
      "lat": 36.3663027,
      "lng": 136.6011315
    },
    {
      "no": 235,
      "region": "中部",
      "pref": "石川県",
      "name": "８番らーめん 本店",
      "category": "tourism",
      "subtype": "",
      "addr": "〒920-3131 石川県金沢市百坂町ニ25",
      "lat": 36.6050167,
      "lng": 136.6838914
    },
    {
      "no": 236,
      "region": "中部",
      "pref": "石川県",
      "name": "白山手取川ジオパーク",
      "category": "tourism",
      "subtype": "ジオパーク",
      "addr": "〒929-0217 石川県白山市湊町タ (白山手取川ジオパーク)",
      "lat": 36.4810107,
      "lng": 136.4800335
    },
    {
      "no": 237,
      "region": "中部",
      "pref": "福井県",
      "name": "道の駅 蓮如の里あわら",
      "category": "tourism",
      "subtype": "",
      "addr": "〒922-0679 福井県あわら市吉崎1丁目801",
      "lat": 36.2887258,
      "lng": 136.2514561
    },
    {
      "no": 238,
      "region": "中部",
      "pref": "福井県",
      "name": "道の駅 パークイン丹生ヶ丘",
      "category": "tourism",
      "subtype": "",
      "addr": "〒916-0142 福井県丹生郡越前町上川去45-1-7",
      "lat": 35.9695192,
      "lng": 136.1192702
    },
    {
      "no": 239,
      "region": "中部",
      "pref": "福井県",
      "name": "道の駅 西山公園",
      "category": "tourism",
      "subtype": "",
      "addr": "〒916-0027 福井県鯖江市桜町3丁目9-950",
      "lat": 35.9487646,
      "lng": 136.1804233
    },
    {
      "no": 240,
      "region": "中部",
      "pref": "福井県",
      "name": "くずりゅう化石ラボ ガ・オーノ",
      "category": "tourism",
      "subtype": "",
      "addr": "〒912-0205 福井県大野市朝日25-7",
      "lat": 35.9053556,
      "lng": 136.6628958
    },
    {
      "no": 241,
      "region": "中部",
      "pref": "福井県",
      "name": "九頭竜ダム",
      "category": "tourism",
      "subtype": "",
      "addr": "〒912-0000 福井県大野市大谷（九頭竜湖）",
      "lat": 35.8760914,
      "lng": 136.7197067
    },
    {
      "no": 242,
      "region": "中部",
      "pref": "福井県",
      "name": "敦賀赤レンガ倉庫",
      "category": "tourism",
      "subtype": "",
      "addr": "〒914-0072 福井県敦賀市金ヶ崎町4-1",
      "lat": 35.6620052,
      "lng": 136.0746772
    },
    {
      "no": 243,
      "region": "中部",
      "pref": "福井県",
      "name": "道の駅 若狭美浜はまびより",
      "category": "tourism",
      "subtype": "",
      "addr": "〒919-1122 福井県三方郡美浜町松原35-15-1",
      "lat": 35.6045558,
      "lng": 135.9367041
    },
    {
      "no": 244,
      "region": "中部",
      "pref": "福井県",
      "name": "道の駅 三方五湖",
      "category": "tourism",
      "subtype": "",
      "addr": "〒919-1331 福井県三方上中郡若狭町鳥浜122-31-1",
      "lat": 35.5598231,
      "lng": 135.8940067
    },
    {
      "no": 245,
      "region": "中部",
      "pref": "福井県",
      "name": "福井県年縞博物館",
      "category": "tourism",
      "subtype": "",
      "addr": "〒919-1331 福井県三方上中郡若狭町鳥浜122-12-1 縄文ロマンパーク内",
      "lat": 35.5590638,
      "lng": 135.8972593
    },
    {
      "no": 246,
      "region": "中部",
      "pref": "福井県",
      "name": "若狭熊川宿 伝統的建造物群保存地区",
      "category": "tourism",
      "subtype": "",
      "addr": "〒919-1532 福井県三方上中郡若狭町熊川",
      "lat": 35.4431674,
      "lng": 135.9014427
    },
    {
      "no": 247,
      "region": "中部",
      "pref": "山梨県",
      "name": "武田八幡宮",
      "category": "tourism",
      "subtype": "",
      "addr": "〒407-0042 山梨県韮崎市神山町北宮地1185",
      "lat": 35.7044852,
      "lng": 138.42014
    },
    {
      "no": 248,
      "region": "中部",
      "pref": "山梨県",
      "name": "桔梗信玄餅 工場テーマパーク",
      "category": "tourism",
      "subtype": "",
      "addr": "〒405-0077 山梨県笛吹市一宮町坪井1928",
      "lat": 35.647993,
      "lng": 138.6640184
    },
    {
      "no": 249,
      "region": "中部",
      "pref": "山梨県",
      "name": "道の駅 しらね",
      "category": "tourism",
      "subtype": "",
      "addr": "〒400-0221 山梨県南アルプス市在家塚595-1",
      "lat": 35.6377089,
      "lng": 138.471106
    },
    {
      "no": 250,
      "region": "中部",
      "pref": "山梨県",
      "name": "道の駅 甲斐大和",
      "category": "tourism",
      "subtype": "",
      "addr": "〒409-1203 山梨県甲州市大和町初鹿野2248",
      "lat": 35.6359342,
      "lng": 138.7927141
    },
    {
      "no": 251,
      "region": "中部",
      "pref": "山梨県",
      "name": "北伊奈ヶ湖",
      "category": "tourism",
      "subtype": "",
      "addr": "〒400-0317 山梨県南アルプス市上市之瀬（北伊奈ヶ湖）",
      "lat": 35.604036,
      "lng": 138.4123884
    },
    {
      "no": 252,
      "region": "中部",
      "pref": "山梨県",
      "name": "道の駅つる",
      "category": "tourism",
      "subtype": "",
      "addr": "〒402-0002 山梨県都留市大原88",
      "lat": 35.5829181,
      "lng": 138.9310311
    },
    {
      "no": 253,
      "region": "中部",
      "pref": "山梨県",
      "name": "明見湖（はす池）",
      "category": "tourism",
      "subtype": "",
      "addr": "〒403-0002 山梨県富士吉田市小明見5丁目4",
      "lat": 35.4911473,
      "lng": 138.8288003
    },
    {
      "no": 254,
      "region": "中部",
      "pref": "山梨県",
      "name": "道の駅 にしじま かみすきパーク",
      "category": "tourism",
      "subtype": "",
      "addr": "〒409-3301 山梨県南巨摩郡身延町西嶋345",
      "lat": 35.4875102,
      "lng": 138.4506726
    },
    {
      "no": 255,
      "region": "中部",
      "pref": "山梨県",
      "name": "富士吉田市立 富士山レーダードーム館",
      "category": "tourism",
      "subtype": "",
      "addr": "〒403-0006 山梨県富士吉田市新屋3丁目7-2",
      "lat": 35.4578306,
      "lng": 138.8035218
    },
    {
      "no": 256,
      "region": "中部",
      "pref": "山梨県",
      "name": "道の駅 なんぶ",
      "category": "tourism",
      "subtype": "",
      "addr": "〒409-2211 山梨県南巨摩郡南部町中野3034-1",
      "lat": 35.306403,
      "lng": 138.4470738
    },
    {
      "no": 257,
      "region": "中部",
      "pref": "長野県",
      "name": "馬曲温泉",
      "category": "tourism",
      "subtype": "",
      "addr": "〒389-2302 長野県下高井郡木島平村大字往郷5567-1",
      "lat": 36.8654127,
      "lng": 138.4466154
    },
    {
      "no": 258,
      "region": "中部",
      "pref": "長野県",
      "name": "冒険者ギルド ワイバーン",
      "category": "tourism",
      "subtype": "",
      "addr": "〒389-0207 長野県北佐久郡御代田町馬瀬口1635-1",
      "lat": 36.3277354,
      "lng": 138.5120612
    },
    {
      "no": 259,
      "region": "中部",
      "pref": "長野県",
      "name": "三郷スカイライン展望台",
      "category": "tourism",
      "subtype": "",
      "addr": "〒399-8212 長野県安曇野市堀金三田（三郷スカイライン展望台）",
      "lat": 36.2729479,
      "lng": 137.8181876
    },
    {
      "no": 260,
      "region": "中部",
      "pref": "長野県",
      "name": "美ヶ原高原美術館",
      "category": "tourism",
      "subtype": "",
      "addr": "〒386-0507 長野県上田市武石上本入2085-70",
      "lat": 36.2308382,
      "lng": 138.1402043
    },
    {
      "no": 261,
      "region": "中部",
      "pref": "長野県",
      "name": "道の駅 八千穂高原",
      "category": "tourism",
      "subtype": "",
      "addr": "〒384-0701 長野県南佐久郡佐久穂町大字畑1190-1",
      "lat": 36.1286002,
      "lng": 138.4653445
    },
    {
      "no": 262,
      "region": "中部",
      "pref": "長野県",
      "name": "道の駅 木曽ならかわ",
      "category": "tourism",
      "subtype": "",
      "addr": "〒399-6302 長野県塩尻市木曽平沢2272-7",
      "lat": 35.9862098,
      "lng": 137.8430763
    },
    {
      "no": 263,
      "region": "中部",
      "pref": "長野県",
      "name": "道の駅 大芝高原",
      "category": "tourism",
      "subtype": "",
      "addr": "〒399-4511 長野県上伊那郡南箕輪村2358-5",
      "lat": 35.8869075,
      "lng": 137.9439362
    },
    {
      "no": 264,
      "region": "中部",
      "pref": "長野県",
      "name": "道の駅 歌舞伎の里大鹿",
      "category": "tourism",
      "subtype": "",
      "addr": "〒399-3502 長野県下伊那郡大鹿村大河原390",
      "lat": 35.5651676,
      "lng": 138.0372862
    },
    {
      "no": 265,
      "region": "中部",
      "pref": "長野県",
      "name": "南アルプス（中央構造線エリア）ジオパーク",
      "category": "tourism",
      "subtype": "ジオパーク",
      "addr": "〒399-3502 長野県下伊那郡大鹿村大河原988 (中央構造線博物館)",
      "lat": 35.556375,
      "lng": 138.0383889
    },
    {
      "no": 266,
      "region": "中部",
      "pref": "長野県",
      "name": "道の駅 信州新野千石平",
      "category": "tourism",
      "subtype": "",
      "addr": "〒399-1612 長野県下伊那郡阿南町新野2700",
      "lat": 35.2572654,
      "lng": 137.7451344
    },
    {
      "no": 267,
      "region": "中部",
      "pref": "長野県",
      "name": "カエル館 茶臼山高原両生類研究所",
      "category": "tourism",
      "subtype": "",
      "addr": "〒395-0701 長野県下伊那郡根羽村茶臼山高原3370-1",
      "lat": 35.2311347,
      "lng": 137.6585926
    },
    {
      "no": 268,
      "region": "中部",
      "pref": "岐阜県",
      "name": "高山陣屋",
      "category": "tourism",
      "subtype": "",
      "addr": "〒506-0012 岐阜県高山市八軒町1丁目5",
      "lat": 36.1396312,
      "lng": 137.2576045
    },
    {
      "no": 269,
      "region": "中部",
      "pref": "岐阜県",
      "name": "道の駅 南飛騨小坂はなもも",
      "category": "tourism",
      "subtype": "",
      "addr": "〒509-3114 岐阜県下呂市小坂町赤かんた811-1",
      "lat": 35.9315148,
      "lng": 137.2949162
    },
    {
      "no": 270,
      "region": "中部",
      "pref": "岐阜県",
      "name": "道の駅 清流の里・しろとり",
      "category": "tourism",
      "subtype": "",
      "addr": "〒501-5126 岐阜県郡上市白鳥町向小駄良693-2",
      "lat": 35.8811068,
      "lng": 136.8546175
    },
    {
      "no": 271,
      "region": "中部",
      "pref": "岐阜県",
      "name": "道の駅 古今伝授の里やまと",
      "category": "tourism",
      "subtype": "",
      "addr": "〒501-4612 岐阜県郡上市大和町剣164",
      "lat": 35.8158088,
      "lng": 136.9023741
    },
    {
      "no": 272,
      "region": "中部",
      "pref": "岐阜県",
      "name": "温泉寺",
      "category": "tourism",
      "subtype": "",
      "addr": "〒509-2207 岐阜県下呂市湯之島680",
      "lat": 35.8106739,
      "lng": 137.242817
    },
    {
      "no": 273,
      "region": "中部",
      "pref": "岐阜県",
      "name": "道の駅 美濃にわか茶屋",
      "category": "tourism",
      "subtype": "",
      "addr": "〒501-3714 岐阜県美濃市曽代2007",
      "lat": 35.554513,
      "lng": 136.9137864
    },
    {
      "no": 274,
      "region": "中部",
      "pref": "岐阜県",
      "name": "馬籠",
      "category": "tourism",
      "subtype": "",
      "addr": "〒508-0502 岐阜県中津川市馬籠",
      "lat": 35.525621,
      "lng": 137.566011
    },
    {
      "no": 275,
      "region": "中部",
      "pref": "岐阜県",
      "name": "岐阜タンメン 岐阜本店",
      "category": "tourism",
      "subtype": "",
      "addr": "〒500-8236 岐阜県岐阜市手力町38-1",
      "lat": 35.3909591,
      "lng": 136.8020119
    },
    {
      "no": 276,
      "region": "中部",
      "pref": "岐阜県",
      "name": "セラミックパークMINO",
      "category": "tourism",
      "subtype": "",
      "addr": "〒507-0801 岐阜県多治見市東町4丁目2-5",
      "lat": 35.3310493,
      "lng": 137.1554177
    },
    {
      "no": 277,
      "region": "中部",
      "pref": "岐阜県",
      "name": "道の駅 上矢作 ラ·フォーレ福寿の里",
      "category": "tourism",
      "subtype": "",
      "addr": "〒509-7521 岐阜県恵那市上矢作町3566-1",
      "lat": 35.3235411,
      "lng": 137.4717261
    },
    {
      "no": 278,
      "region": "中部",
      "pref": "静岡県",
      "name": "静岡県富士山世界遺産センター",
      "category": "tourism",
      "subtype": "",
      "addr": "〒418-0067 静岡県富士宮市宮町5-12",
      "lat": 35.22378,
      "lng": 138.608858
    },
    {
      "no": 279,
      "region": "中部",
      "pref": "静岡県",
      "name": "道の駅 富士 (上り)",
      "category": "tourism",
      "subtype": "",
      "addr": "〒416-0946 静岡県富士市五貫島669-1",
      "lat": 35.1332636,
      "lng": 138.6473422
    },
    {
      "no": 280,
      "region": "中部",
      "pref": "静岡県",
      "name": "道の駅 富士 (下り)",
      "category": "tourism",
      "subtype": "",
      "addr": "〒416-0946 静岡県富士市五貫島669-1",
      "lat": 35.1325879,
      "lng": 138.646641
    },
    {
      "no": 281,
      "region": "中部",
      "pref": "静岡県",
      "name": "奥長島のだんだん茶畑",
      "category": "tourism",
      "subtype": "",
      "addr": "〒421-2125 静岡県静岡市葵区足久保奥組3293",
      "lat": 35.0765354,
      "lng": 138.3014422
    },
    {
      "no": 282,
      "region": "中部",
      "pref": "静岡県",
      "name": "伊豆半島ユネスコ世界ジオパーク",
      "category": "tourism",
      "subtype": "ジオパーク",
      "addr": "〒410-2416 静岡県伊豆市修善寺838-1 (ジオリア)",
      "lat": 34.9727329,
      "lng": 138.9332158
    },
    {
      "no": 283,
      "region": "中部",
      "pref": "静岡県",
      "name": "道の駅 くるら戸田",
      "category": "tourism",
      "subtype": "",
      "addr": "〒410-3402 静岡県沼津市戸田1294-3",
      "lat": 34.9713073,
      "lng": 138.7865596
    },
    {
      "no": 284,
      "region": "中部",
      "pref": "静岡県",
      "name": "道の駅 ゆとりえせとや",
      "category": "tourism",
      "subtype": "",
      "addr": "〒426-0132 静岡県藤枝市本郷5445",
      "lat": 34.9280583,
      "lng": 138.2043365
    },
    {
      "no": 285,
      "region": "中部",
      "pref": "静岡県",
      "name": "怪しい少年少女博物館",
      "category": "tourism",
      "subtype": "",
      "addr": "〒413-0231 静岡県伊東市富戸街道下1029-64",
      "lat": 34.8915564,
      "lng": 139.1167942
    },
    {
      "no": 286,
      "region": "中部",
      "pref": "静岡県",
      "name": "道の駅 天城越え",
      "category": "tourism",
      "subtype": "",
      "addr": "〒410-3206 静岡県伊豆市湯ヶ島892-6",
      "lat": 34.8556669,
      "lng": 138.9222771
    },
    {
      "no": 287,
      "region": "中部",
      "pref": "静岡県",
      "name": "東伊豆風力発電(パラグライダー三筋山ランディング)",
      "category": "tourism",
      "subtype": "風スポット",
      "addr": "〒413-0411 静岡県賀茂郡東伊豆町稲取3150-3 (伊豆フライトハウス)",
      "lat": 34.7939858,
      "lng": 139.01658
    },
    {
      "no": 288,
      "region": "中部",
      "pref": "静岡県",
      "name": "道の駅 そらっと牧之原",
      "category": "tourism",
      "subtype": "",
      "addr": "〒421-0412 静岡県牧之原市坂部582-1",
      "lat": 34.7771315,
      "lng": 138.2128126
    },
    {
      "no": 289,
      "region": "中部",
      "pref": "静岡県",
      "name": "舘山寺",
      "category": "tourism",
      "subtype": "",
      "addr": "〒431-2224 静岡県浜松市浜名区引佐町奥山1577-1 (方広寺)",
      "lat": 34.8482067,
      "lng": 137.6149864
    },
    {
      "no": 290,
      "region": "中部",
      "pref": "愛知県",
      "name": "犬山丸の内緑地",
      "category": "tourism",
      "subtype": "",
      "addr": "〒484-0082 愛知県犬山市犬山北古券45",
      "lat": 35.3861241,
      "lng": 136.9368164
    },
    {
      "no": 291,
      "region": "中部",
      "pref": "愛知県",
      "name": "道の駅 つぐ高原グリーンパーク",
      "category": "tourism",
      "subtype": "",
      "addr": "〒441-2601 愛知県北設楽郡設楽町津具東山2-156",
      "lat": 35.2002703,
      "lng": 137.6049309
    },
    {
      "no": 292,
      "region": "中部",
      "pref": "愛知県",
      "name": "伊勢神峠登山口駐車場",
      "category": "tourism",
      "subtype": "",
      "addr": "〒444-2601 愛知県豊田市明川町",
      "lat": 35.1699871,
      "lng": 137.4270402
    },
    {
      "no": 293,
      "region": "中部",
      "pref": "愛知県",
      "name": "道の駅 ふれあいの里HASUパーク",
      "category": "tourism",
      "subtype": "",
      "addr": "〒496-0943 愛知県愛西市森川町井桁西27",
      "lat": 35.1443072,
      "lng": 136.69459
    },
    {
      "no": 294,
      "region": "中部",
      "pref": "愛知県",
      "name": "道の駅 マチテラス日進",
      "category": "tourism",
      "subtype": "",
      "addr": "〒470-0121 愛知県日進市本郷町前田33番地",
      "lat": 35.1379071,
      "lng": 137.0436445
    },
    {
      "no": 295,
      "region": "中部",
      "pref": "愛知県",
      "name": "やきもの散歩道 大駐車場",
      "category": "tourism",
      "subtype": "",
      "addr": "〒479-0836 愛知県常滑市栄町7丁目",
      "lat": 34.8876141,
      "lng": 136.8417298
    },
    {
      "no": 296,
      "region": "中部",
      "pref": "愛知県",
      "name": "窯のある広場・資料館（INAXライブミュージアム総合受付）",
      "category": "tourism",
      "subtype": "",
      "addr": "〒479-8586 愛知県常滑市奥栄町1丁目130",
      "lat": 34.8815473,
      "lng": 136.8490345
    },
    {
      "no": 297,
      "region": "中部",
      "pref": "愛知県",
      "name": "道の駅 にしお岡ノ山",
      "category": "tourism",
      "subtype": "",
      "addr": "〒445-0006 愛知県西尾市小島町岡ノ山105-57",
      "lat": 34.8764016,
      "lng": 137.0823074
    },
    {
      "no": 298,
      "region": "関東",
      "pref": "茨城県",
      "name": "久慈港(くじ港) 駐車場",
      "category": "tourism",
      "subtype": "",
      "addr": "〒319-1222 茨城県日立市久慈町1丁目1",
      "lat": 36.5006865,
      "lng": 140.6262382
    },
    {
      "no": 299,
      "region": "中部",
      "pref": "愛知県",
      "name": "道の駅 田原めっくんはうす",
      "category": "tourism",
      "subtype": "",
      "addr": "〒441-3416 愛知県田原市東赤石5丁目74",
      "lat": 34.6614859,
      "lng": 137.2723205
    },
    {
      "no": 300,
      "region": "近畿",
      "pref": "三重県",
      "name": "痔神大明神",
      "category": "tourism",
      "subtype": "",
      "addr": "〒514-0101 三重県津市白塚町1-39",
      "lat": 34.7758364,
      "lng": 136.531504
    },
    {
      "no": 301,
      "region": "近畿",
      "pref": "三重県",
      "name": "三重県総合博物館（MieMu）",
      "category": "tourism",
      "subtype": "",
      "addr": "〒514-0061 三重県津市一身田上津部田3060",
      "lat": 34.7422916,
      "lng": 136.5016848
    },
    {
      "no": 302,
      "region": "近畿",
      "pref": "三重県",
      "name": "味のお福",
      "category": "tourism",
      "subtype": "",
      "addr": "〒518-0121 三重県伊賀市上之庄3401-8",
      "lat": 34.7280966,
      "lng": 136.0948063
    },
    {
      "no": 303,
      "region": "近畿",
      "pref": "三重県",
      "name": "大きなウサギのモニュメント",
      "category": "tourism",
      "subtype": "",
      "addr": "〒515-3533 三重県津市美杉町石名原 寺村",
      "lat": 34.5144625,
      "lng": 136.2418402
    },
    {
      "no": 304,
      "region": "近畿",
      "pref": "三重県",
      "name": "道の駅 茶倉駅",
      "category": "tourism",
      "subtype": "",
      "addr": "〒515-1411 三重県松阪市飯南町粥見452-1",
      "lat": 34.4605016,
      "lng": 136.3982872
    },
    {
      "no": 305,
      "region": "近畿",
      "pref": "三重県",
      "name": "道の駅 飯高駅",
      "category": "tourism",
      "subtype": "",
      "addr": "〒515-1502 三重県松阪市飯高町宮前177",
      "lat": 34.4275673,
      "lng": 136.3319507
    },
    {
      "no": 306,
      "region": "近畿",
      "pref": "三重県",
      "name": "尾鷲神社",
      "category": "tourism",
      "subtype": "",
      "addr": "〒519-3606 三重県尾鷲市北浦町12-5",
      "lat": 34.0773362,
      "lng": 136.1958237
    },
    {
      "no": 307,
      "region": "近畿",
      "pref": "三重県",
      "name": "道の駅 熊野きのくに",
      "category": "tourism",
      "subtype": "",
      "addr": "〒519-4561 三重県熊野市飛鳥町大又109-21",
      "lat": 33.9599404,
      "lng": 136.1044962
    },
    {
      "no": 308,
      "region": "近畿",
      "pref": "三重県",
      "name": "道の駅 熊野・花の窟",
      "category": "tourism",
      "subtype": "",
      "addr": "〒519-4325 三重県熊野市有馬町137",
      "lat": 33.8789422,
      "lng": 136.0922193
    },
    {
      "no": 309,
      "region": "近畿",
      "pref": "三重県",
      "name": "道の駅 熊野･板屋九郎兵衛の里",
      "category": "tourism",
      "subtype": "",
      "addr": "〒519-5413 三重県熊野市紀和町板屋82",
      "lat": 33.8766141,
      "lng": 135.9155279
    },
    {
      "no": 310,
      "region": "近畿",
      "pref": "滋賀県",
      "name": "ダイコウ醤油",
      "category": "tourism",
      "subtype": "",
      "addr": "〒529-0425 滋賀県長浜市木之本町木之本1137",
      "lat": 35.5026824,
      "lng": 136.2267311
    },
    {
      "no": 311,
      "region": "近畿",
      "pref": "滋賀県",
      "name": "道の駅 浅井三姉妹の郷",
      "category": "tourism",
      "subtype": "",
      "addr": "〒526-0244 滋賀県長浜市内保町2843",
      "lat": 35.4300858,
      "lng": 136.3058479
    },
    {
      "no": 312,
      "region": "近畿",
      "pref": "滋賀県",
      "name": "国友鉄砲ミュージアム",
      "category": "tourism",
      "subtype": "",
      "addr": "〒526-0001 滋賀県長浜市国友町534",
      "lat": 35.4089195,
      "lng": 136.2825014
    },
    {
      "no": 313,
      "region": "近畿",
      "pref": "滋賀県",
      "name": "第1展望ポイント",
      "category": "tourism",
      "subtype": "",
      "addr": "〒520-1443 滋賀県高島市朽木雲洞谷（第1展望ポイント）",
      "lat": 35.3789366,
      "lng": 135.8007208
    },
    {
      "no": 314,
      "region": "近畿",
      "pref": "滋賀県",
      "name": "道の駅 しんあさひ風車村",
      "category": "tourism",
      "subtype": "",
      "addr": "〒520-1511 滋賀県高島市新旭町藁園336",
      "lat": 35.3487836,
      "lng": 136.0675443
    },
    {
      "no": 315,
      "region": "近畿",
      "pref": "滋賀県",
      "name": "道の駅 近江母の郷",
      "category": "tourism",
      "subtype": "",
      "addr": "〒521-0062 滋賀県米原市宇賀野1364-1",
      "lat": 35.3433538,
      "lng": 136.2772332
    },
    {
      "no": 316,
      "region": "近畿",
      "pref": "滋賀県",
      "name": "彦根城",
      "category": "tourism",
      "subtype": "",
      "addr": "〒522-0061 滋賀県彦根市金亀町1-1",
      "lat": 35.276452,
      "lng": 136.251846
    },
    {
      "no": 317,
      "region": "近畿",
      "pref": "滋賀県",
      "name": "あのベンチ",
      "category": "tourism",
      "subtype": "",
      "addr": "〒521-1101 滋賀県彦根市石寺町（あのベンチ）",
      "lat": 35.2416013,
      "lng": 136.1782327
    },
    {
      "no": 318,
      "region": "近畿",
      "pref": "滋賀県",
      "name": "道の駅 奥永源寺渓流の里",
      "category": "tourism",
      "subtype": "",
      "addr": "〒527-0207 滋賀県東近江市蓼畑町510",
      "lat": 35.1055702,
      "lng": 136.371956
    },
    {
      "no": 319,
      "region": "近畿",
      "pref": "滋賀県",
      "name": "道の駅 アグリパーク竜王",
      "category": "tourism",
      "subtype": "",
      "addr": "〒520-2531 滋賀県蒲生郡竜王町山之上6526",
      "lat": 35.0435806,
      "lng": 136.1448778
    },
    {
      "no": 320,
      "region": "近畿",
      "pref": "京都府",
      "name": "道の駅 てんきてんき丹後",
      "category": "tourism",
      "subtype": "",
      "addr": "〒627-0221 京都府京丹後市丹後町高野313-1",
      "lat": 35.7388643,
      "lng": 135.1053743
    },
    {
      "no": 321,
      "region": "近畿",
      "pref": "京都府",
      "name": "道の駅 海の京都 宮津",
      "category": "tourism",
      "subtype": "",
      "addr": "〒626-0012 京都府宮津市浜町3007",
      "lat": 35.5381696,
      "lng": 135.194027
    },
    {
      "no": 322,
      "region": "近畿",
      "pref": "京都府",
      "name": "道の駅 シルクのまち かや",
      "category": "tourism",
      "subtype": "",
      "addr": "〒629-2422 京都府与謝郡与謝野町滝98",
      "lat": 35.4814041,
      "lng": 135.0936534
    },
    {
      "no": 323,
      "region": "近畿",
      "pref": "京都府",
      "name": "ドライブイン ダルマ",
      "category": "tourism",
      "subtype": "",
      "addr": "〒624-0955 京都府舞鶴市丸田822-1",
      "lat": 35.4705575,
      "lng": 135.2777692
    },
    {
      "no": 324,
      "region": "近畿",
      "pref": "京都府",
      "name": "あやべグンゼスクエア",
      "category": "tourism",
      "subtype": "",
      "addr": "〒623-0011 京都府綾部市青野町亀無1-2",
      "lat": 35.3049297,
      "lng": 135.2581264
    },
    {
      "no": 325,
      "region": "近畿",
      "pref": "京都府",
      "name": "道の駅 和",
      "category": "tourism",
      "subtype": "",
      "addr": "〒629-1131 京都府船井郡京丹波町坂原上モジリ11-11",
      "lat": 35.2702281,
      "lng": 135.3975678
    },
    {
      "no": 326,
      "region": "近畿",
      "pref": "京都府",
      "name": "世木ダム展望所",
      "category": "tourism",
      "subtype": "",
      "addr": "〒629-0334 京都府南丹市日吉町天若（世木ダム展望所）",
      "lat": 35.1361501,
      "lng": 135.5555955
    },
    {
      "no": 327,
      "region": "近畿",
      "pref": "京都府",
      "name": "かめおか霧のテラス",
      "category": "tourism",
      "subtype": "",
      "addr": "〒621-0854 京都府亀岡市曽我部町南条大谷",
      "lat": 34.9926721,
      "lng": 135.5615506
    },
    {
      "no": 328,
      "region": "近畿",
      "pref": "京都府",
      "name": "京都国立博物館",
      "category": "tourism",
      "subtype": "",
      "addr": "〒605-0931 京都府京都市東山区茶屋町527",
      "lat": 34.9899887,
      "lng": 135.773116
    },
    {
      "no": 329,
      "region": "近畿",
      "pref": "京都府",
      "name": "道の駅 お茶の京都 みなみやましろ村",
      "category": "tourism",
      "subtype": "",
      "addr": "〒619-1411 京都府相楽郡南山城村大字北大河原小字殿田102",
      "lat": 34.76516,
      "lng": 136.0243614
    },
    {
      "no": 330,
      "region": "近畿",
      "pref": "大阪府",
      "name": "道の駅 能勢（くりの郷）",
      "category": "tourism",
      "subtype": "",
      "addr": "〒563-0364 大阪府豊能郡能勢町平野535",
      "lat": 34.956659,
      "lng": 135.4011596
    },
    {
      "no": 331,
      "region": "近畿",
      "pref": "大阪府",
      "name": "ダムパークいばきた",
      "category": "tourism",
      "subtype": "",
      "addr": "〒568-0092 大阪府茨木市生保53-1",
      "lat": 34.8756042,
      "lng": 135.5555485
    },
    {
      "no": 332,
      "region": "近畿",
      "pref": "大阪府",
      "name": "池田城跡公園",
      "category": "tourism",
      "subtype": "",
      "addr": "〒563-0052 大阪府池田市城山町3-46",
      "lat": 34.8270956,
      "lng": 135.428439
    },
    {
      "no": 333,
      "region": "近畿",
      "pref": "大阪府",
      "name": "国立民族学博物館",
      "category": "tourism",
      "subtype": "",
      "addr": "〒565-0826 大阪府吹田市千里万博公園10-1",
      "lat": 34.8128311,
      "lng": 135.5302466
    },
    {
      "no": 334,
      "region": "近畿",
      "pref": "大阪府",
      "name": "豊中つばさ公園 『ma-zika』",
      "category": "tourism",
      "subtype": "",
      "addr": "〒561-0807 大阪府豊中市原田中2丁目2-14",
      "lat": 34.7695973,
      "lng": 135.4538385
    },
    {
      "no": 335,
      "region": "近畿",
      "pref": "大阪府",
      "name": "天保山",
      "category": "tourism",
      "subtype": "",
      "addr": "〒552-0022 大阪府大阪市港区海岸通 (天保山)",
      "lat": 34.6534983,
      "lng": 135.4333777
    },
    {
      "no": 336,
      "region": "近畿",
      "pref": "大阪府",
      "name": "道の駅 しらとりの郷・羽曳野",
      "category": "tourism",
      "subtype": "",
      "addr": "〒583-0866 大阪府羽曳野市埴生野975-3",
      "lat": 34.5330429,
      "lng": 135.5877474
    },
    {
      "no": 337,
      "region": "近畿",
      "pref": "大阪府",
      "name": "道の駅 奥河内くろまろの郷",
      "category": "tourism",
      "subtype": "",
      "addr": "〒586-0036 大阪府河内長野市高向1218-1",
      "lat": 34.4362205,
      "lng": 135.5512875
    },
    {
      "no": 338,
      "region": "近畿",
      "pref": "大阪府",
      "name": "道の駅 いずみ山愛の里",
      "category": "tourism",
      "subtype": "",
      "addr": "〒594-1136 大阪府和泉市仏並町398-1",
      "lat": 34.4231529,
      "lng": 135.4830017
    },
    {
      "no": 339,
      "region": "近畿",
      "pref": "大阪府",
      "name": "道の駅 みさき",
      "category": "tourism",
      "subtype": "",
      "addr": "〒599-0301 大阪府泉南郡岬町淡輪5654-3",
      "lat": 34.3257529,
      "lng": 135.1738331
    },
    {
      "no": 340,
      "region": "近畿",
      "pref": "兵庫県",
      "name": "山陰海岸ユネスコ世界ジオパーク",
      "category": "tourism",
      "subtype": "ジオパーク",
      "addr": "〒669-6702 兵庫県美方郡新温泉町浜坂水尻 (山陰海岸ジオパーク館)",
      "lat": 35.628531,
      "lng": 134.4459764
    },
    {
      "no": 341,
      "region": "近畿",
      "pref": "兵庫県",
      "name": "道の駅 神鍋高原",
      "category": "tourism",
      "subtype": "",
      "addr": "〒669-5372 兵庫県豊岡市日高町栗栖野59-13",
      "lat": 35.4990606,
      "lng": 134.6750059
    },
    {
      "no": 342,
      "region": "近畿",
      "pref": "兵庫県",
      "name": "道の駅 村岡ファームガーデン",
      "category": "tourism",
      "subtype": "",
      "addr": "〒667-1321 兵庫県美方郡香美町村岡区大糠32-1",
      "lat": 35.461812,
      "lng": 134.6027872
    },
    {
      "no": 343,
      "region": "近畿",
      "pref": "兵庫県",
      "name": "道の駅 但馬楽座",
      "category": "tourism",
      "subtype": "",
      "addr": "〒667-0131 兵庫県養父市上野299",
      "lat": 35.379321,
      "lng": 134.783912
    },
    {
      "no": 344,
      "region": "近畿",
      "pref": "兵庫県",
      "name": "神子畑選鉱場跡",
      "category": "tourism",
      "subtype": "",
      "addr": "〒679-3453 兵庫県朝来市佐嚢1842-1",
      "lat": 35.2438975,
      "lng": 134.7169556
    },
    {
      "no": 345,
      "region": "近畿",
      "pref": "兵庫県",
      "name": "道の駅 銀の馬車道 神河",
      "category": "tourism",
      "subtype": "",
      "addr": "〒679-2434 兵庫県神崎郡神河町吉富88-10",
      "lat": 35.0911946,
      "lng": 134.7781179
    },
    {
      "no": 346,
      "region": "近畿",
      "pref": "兵庫県",
      "name": "揖保乃糸資料館そうめんの里",
      "category": "tourism",
      "subtype": "",
      "addr": "〒679-4101 兵庫県たつの市神岡町奥村56",
      "lat": 34.8915228,
      "lng": 134.5665204
    },
    {
      "no": 347,
      "region": "近畿",
      "pref": "兵庫県",
      "name": "鶉野飛行場滑走路跡地",
      "category": "tourism",
      "subtype": "",
      "addr": "〒675-2103 兵庫県加西市鶉野町2274-11",
      "lat": 34.8906367,
      "lng": 134.8662683
    },
    {
      "no": 348,
      "region": "近畿",
      "pref": "兵庫県",
      "name": "道の駅 よかわ",
      "category": "tourism",
      "subtype": "",
      "addr": "〒673-1114 兵庫県三木市吉川町吉安222",
      "lat": 34.8854252,
      "lng": 135.1224955
    },
    {
      "no": 349,
      "region": "近畿",
      "pref": "兵庫県",
      "name": "三ツ矢サイダーミュージアム",
      "category": "tourism",
      "subtype": "",
      "addr": "〒674-0093 兵庫県明石市二見町南二見1-33",
      "lat": 34.6892333,
      "lng": 134.8713233
    },
    {
      "no": 350,
      "region": "近畿",
      "pref": "兵庫県",
      "name": "南淡路水仙ライン",
      "category": "tourism",
      "subtype": "",
      "addr": "〒656-0551 兵庫県南あわじ市灘黒岩359",
      "lat": 34.2210325,
      "lng": 134.8287664
    },
    {
      "no": 351,
      "region": "近畿",
      "pref": "奈良県",
      "name": "道の駅 クロスウェイなかまち",
      "category": "tourism",
      "subtype": "",
      "addr": "〒631-0052 奈良県奈良市中町4694-1",
      "lat": 34.669185,
      "lng": 135.75422
    },
    {
      "no": 352,
      "region": "近畿",
      "pref": "奈良県",
      "name": "暗峠",
      "category": "tourism",
      "subtype": "",
      "addr": "〒630-0236 奈良県生駒市西畑町（暗峠）",
      "lat": 34.6657649,
      "lng": 135.671645
    },
    {
      "no": 353,
      "region": "近畿",
      "pref": "奈良県",
      "name": "道の駅 針テラス",
      "category": "tourism",
      "subtype": "",
      "addr": "〒632-0251 奈良県奈良市針町345",
      "lat": 34.6102067,
      "lng": 135.9623548
    },
    {
      "no": 354,
      "region": "近畿",
      "pref": "奈良県",
      "name": "唐古・鍵考古学ミュージアム",
      "category": "tourism",
      "subtype": "",
      "addr": "〒636-0247 奈良県磯城郡田原本町阪手233-1",
      "lat": 34.5574574,
      "lng": 135.8020553
    },
    {
      "no": 355,
      "region": "近畿",
      "pref": "奈良県",
      "name": "道の駅 ‎宇陀路大宇陀",
      "category": "tourism",
      "subtype": "",
      "addr": "〒633-2164 奈良県宇陀市大宇陀拾生714-1",
      "lat": 34.4759441,
      "lng": 135.9322565
    },
    {
      "no": 356,
      "region": "近畿",
      "pref": "奈良県",
      "name": "石舞台古墳",
      "category": "tourism",
      "subtype": "",
      "addr": "〒634-0112 奈良県高市郡明日香村島庄254",
      "lat": 34.4668518,
      "lng": 135.8261485
    },
    {
      "no": 357,
      "region": "近畿",
      "pref": "奈良県",
      "name": "道の駅 吉野路大淀ｉセンター",
      "category": "tourism",
      "subtype": "",
      "addr": "〒638-0801 奈良県吉野郡大淀町芦原536-1",
      "lat": 34.412253,
      "lng": 135.7969933
    },
    {
      "no": 358,
      "region": "近畿",
      "pref": "奈良県",
      "name": "みたらい渓谷・駐車場",
      "category": "tourism",
      "subtype": "",
      "addr": "〒638-0303 奈良県吉野郡天川村北角（みたらい渓谷駐車場）",
      "lat": 34.234344,
      "lng": 135.8756357
    },
    {
      "no": 359,
      "region": "近畿",
      "pref": "奈良県",
      "name": "野迫川村高野豆腐伝承館",
      "category": "tourism",
      "subtype": "",
      "addr": "〒637-0423 奈良県吉野郡野迫川村檜股636",
      "lat": 34.206887,
      "lng": 135.6766213
    },
    {
      "no": 360,
      "region": "近畿",
      "pref": "奈良県",
      "name": "下北山スポーツ公園 きなりの郷",
      "category": "tourism",
      "subtype": "",
      "addr": "〒639-3805 奈良県吉野郡下北山村上池原1026",
      "lat": 34.0475004,
      "lng": 135.9624012
    },
    {
      "no": 361,
      "region": "近畿",
      "pref": "和歌山県",
      "name": "道の駅 海南サクアス",
      "category": "tourism",
      "subtype": "",
      "addr": "〒649-0141 和歌山県海南市下津町小南51-1",
      "lat": 34.1282283,
      "lng": 135.1702561
    },
    {
      "no": 362,
      "region": "近畿",
      "pref": "和歌山県",
      "name": "道の駅 しみず",
      "category": "tourism",
      "subtype": "",
      "addr": "〒643-0521 和歌山県有田郡有田川町清水607",
      "lat": 34.0880485,
      "lng": 135.4434215
    },
    {
      "no": 363,
      "region": "近畿",
      "pref": "和歌山県",
      "name": "有田みかん海道展望台",
      "category": "tourism",
      "subtype": "",
      "addr": "〒649-0316 和歌山県有田市宮崎町（有田みかん海道）",
      "lat": 34.0727158,
      "lng": 135.1103216
    },
    {
      "no": 364,
      "region": "近畿",
      "pref": "和歌山県",
      "name": "クエモニュメント",
      "category": "tourism",
      "subtype": "",
      "addr": "〒649-1221 和歌山県日高郡日高町志賀1755",
      "lat": 33.9224356,
      "lng": 135.1091437
    },
    {
      "no": 365,
      "region": "近畿",
      "pref": "和歌山県",
      "name": "道の駅 みなべうめ振興館",
      "category": "tourism",
      "subtype": "",
      "addr": "〒645-0026 和歌山県日高郡みなべ町谷口538-1",
      "lat": 33.7907672,
      "lng": 135.3271094
    },
    {
      "no": 366,
      "region": "近畿",
      "pref": "和歌山県",
      "name": "道の駅 ふるさとセンター 大塔",
      "category": "tourism",
      "subtype": "",
      "addr": "〒646-1101 和歌山県田辺市鮎川997-1",
      "lat": 33.7428191,
      "lng": 135.501844
    },
    {
      "no": 367,
      "region": "近畿",
      "pref": "和歌山県",
      "name": "太地町立くじらの博物館",
      "category": "tourism",
      "subtype": "",
      "addr": "〒649-5171 和歌山県東牟婁郡太地町太地2934-2",
      "lat": 33.6018789,
      "lng": 135.9458029
    },
    {
      "no": 368,
      "region": "近畿",
      "pref": "和歌山県",
      "name": "フェニックス褶曲",
      "category": "tourism",
      "subtype": "",
      "addr": "〒649-2612 和歌山県西牟婁郡すさみ町口和深",
      "lat": 33.5220861,
      "lng": 135.5273081
    },
    {
      "no": 369,
      "region": "近畿",
      "pref": "和歌山県",
      "name": "道の駅 くしもと橋杭岩",
      "category": "tourism",
      "subtype": "",
      "addr": "〒649-3511 和歌山県東牟婁郡串本町くじ野川1549-8",
      "lat": 33.488076,
      "lng": 135.7943337
    },
    {
      "no": 370,
      "region": "近畿",
      "pref": "和歌山県",
      "name": "トルコ記念館",
      "category": "tourism",
      "subtype": "",
      "addr": "〒649-3631 和歌山県東牟婁郡串本町樫野1025-26",
      "lat": 33.4692433,
      "lng": 135.8587101
    },
    {
      "no": 371,
      "region": "近畿",
      "pref": "和歌山県",
      "name": "本州最南端：潮岬",
      "category": "pole_area",
      "subtype": "",
      "addr": "〒649-3502 和歌山県東牟婁郡串本町潮岬",
      "lat": 33.4362656,
      "lng": 135.7621326
    },
    {
      "no": 372,
      "region": "近畿",
      "pref": "和歌山県",
      "name": "南紀熊野ジオパーク",
      "category": "tourism",
      "subtype": "ジオパーク",
      "addr": "〒649-3502 和歌山県東牟婁郡串本町潮岬2838-3 (南紀熊野ジオパークセンター)",
      "lat": 33.4376057,
      "lng": 135.7607971
    },
    {
      "no": 373,
      "region": "中国",
      "pref": "鳥取県",
      "name": "白兎神社",
      "category": "tourism",
      "subtype": "",
      "addr": "〒689-0206 鳥取県鳥取市白兎603",
      "lat": 35.524206,
      "lng": 134.115066
    },
    {
      "no": 374,
      "region": "中国",
      "pref": "鳥取県",
      "name": "道の駅 大栄",
      "category": "tourism",
      "subtype": "",
      "addr": "〒689-2221 鳥取県東伯郡北栄町由良宿1458-15",
      "lat": 35.4987629,
      "lng": 133.761952
    },
    {
      "no": 375,
      "region": "中国",
      "pref": "鳥取県",
      "name": "道の駅 はわい",
      "category": "tourism",
      "subtype": "",
      "addr": "〒682-0701 鳥取県東伯郡湯梨浜町宇野2343",
      "lat": 35.4942611,
      "lng": 133.8904639
    },
    {
      "no": 376,
      "region": "中国",
      "pref": "鳥取県",
      "name": "船上山北展望駐車場",
      "category": "tourism",
      "subtype": "",
      "addr": "〒689-2535 鳥取県東伯郡琴浦町尾張",
      "lat": 35.4344078,
      "lng": 133.5972818
    },
    {
      "no": 377,
      "region": "中国",
      "pref": "鳥取県",
      "name": "エースパック なしっこ館(鳥取二十世紀梨記念館)",
      "category": "tourism",
      "subtype": "",
      "addr": "〒682-0816 鳥取県倉吉市駄経寺町198-4",
      "lat": 35.4312712,
      "lng": 133.8354156
    },
    {
      "no": 378,
      "region": "中国",
      "pref": "鳥取県",
      "name": "植田正治写真美術館",
      "category": "tourism",
      "subtype": "",
      "addr": "〒689-4107 鳥取県西伯郡伯耆町須村353-3",
      "lat": 35.389888,
      "lng": 133.435734
    },
    {
      "no": 379,
      "region": "中国",
      "pref": "鳥取県",
      "name": "隼駅駐輪場",
      "category": "tourism",
      "subtype": "",
      "addr": "〒680-0607 鳥取県八頭郡八頭町徳丸（隼駅駐輪場）",
      "lat": 35.3646376,
      "lng": 134.3353375
    },
    {
      "no": 380,
      "region": "中国",
      "pref": "鳥取県",
      "name": "道の駅 はっとう",
      "category": "tourism",
      "subtype": "",
      "addr": "〒680-0607 鳥取県八頭郡八頭町徳丸625",
      "lat": 35.3664775,
      "lng": 134.3396512
    },
    {
      "no": 381,
      "region": "中国",
      "pref": "鳥取県",
      "name": "道の駅 若桜 桜ん坊",
      "category": "tourism",
      "subtype": "",
      "addr": "〒680-0701 鳥取県八頭郡若桜町若桜983-2",
      "lat": 35.3438896,
      "lng": 134.4003017
    },
    {
      "no": 382,
      "region": "中国",
      "pref": "鳥取県",
      "name": "道の駅 犬挟",
      "category": "tourism",
      "subtype": "",
      "addr": "〒682-0412 鳥取県倉吉市関金町山口2030",
      "lat": 35.3292492,
      "lng": 133.756062
    },
    {
      "no": 383,
      "region": "中国",
      "pref": "島根県",
      "name": "隠岐ユネスコ世界ジオパーク",
      "category": "tourism",
      "subtype": "ジオパーク",
      "addr": "〒685-0013 島根県隠岐郡隠岐の島町中町目貫の四61 (隠岐ジオゲートウェイ2階)",
      "lat": 36.2038478,
      "lng": 133.3352585
    },
    {
      "no": 384,
      "region": "中国",
      "pref": "島根県",
      "name": "島根半島・宍道湖中海ジオパーク",
      "category": "tourism",
      "subtype": "ジオパーク",
      "addr": "〒690-0401 島根県松江市島根町加賀6120-14",
      "lat": 35.564924,
      "lng": 133.0575969
    },
    {
      "no": 385,
      "region": "中国",
      "pref": "島根県",
      "name": "古浦展望台",
      "category": "tourism",
      "subtype": "",
      "addr": "〒690-0333 島根県松江市鹿島町古浦213-1",
      "lat": 35.5171087,
      "lng": 132.974268
    },
    {
      "no": 386,
      "region": "中国",
      "pref": "島根県",
      "name": "和鋼博物館",
      "category": "tourism",
      "subtype": "",
      "addr": "〒692-0011 島根県安来市安来町1058",
      "lat": 35.4353534,
      "lng": 133.2536192
    },
    {
      "no": 387,
      "region": "中国",
      "pref": "島根県",
      "name": "黄泉比良坂",
      "category": "tourism",
      "subtype": "",
      "addr": "〒699-0101 島根県松江市東出雲町揖屋2407",
      "lat": 35.4276537,
      "lng": 133.1622334
    },
    {
      "no": 388,
      "region": "中国",
      "pref": "島根県",
      "name": "道の駅 湯の川",
      "category": "tourism",
      "subtype": "",
      "addr": "〒699-0501 島根県出雲市斐川町学頭825-2",
      "lat": 35.3956261,
      "lng": 132.8693237
    },
    {
      "no": 389,
      "region": "中国",
      "pref": "島根県",
      "name": "道の駅 キララ多伎",
      "category": "tourism",
      "subtype": "",
      "addr": "〒699-0902 島根県出雲市多伎町多岐135-1",
      "lat": 35.2907828,
      "lng": 132.6324756
    },
    {
      "no": 390,
      "region": "中国",
      "pref": "島根県",
      "name": "道の駅 たたらば壱番地",
      "category": "tourism",
      "subtype": "",
      "addr": "〒690-2801 島根県雲南市吉田町吉田4378-31",
      "lat": 35.1669895,
      "lng": 132.830135
    },
    {
      "no": 391,
      "region": "中国",
      "pref": "島根県",
      "name": "道の駅 ごいせ仁摩",
      "category": "tourism",
      "subtype": "",
      "addr": "〒699-2303 島根県大田市仁摩町大国42-1",
      "lat": 35.1458955,
      "lng": 132.4130905
    },
    {
      "no": 392,
      "region": "中国",
      "pref": "島根県",
      "name": "道の駅 赤来高原",
      "category": "tourism",
      "subtype": "",
      "addr": "〒690-3513 島根県飯石郡飯南町下赤名880-3",
      "lat": 34.9989947,
      "lng": 132.7138712
    },
    {
      "no": 393,
      "region": "中国",
      "pref": "島根県",
      "name": "広浜鉄道今福線 橋脚群展望台",
      "category": "tourism",
      "subtype": "",
      "addr": "〒697-0312 島根県浜田市宇津井町",
      "lat": 34.9130139,
      "lng": 132.1733857
    },
    {
      "no": 394,
      "region": "中国",
      "pref": "島根県",
      "name": "津和野町日本遺産センター",
      "category": "tourism",
      "subtype": "",
      "addr": "〒699-5605 島根県鹿足郡津和野町後田ロ-253",
      "lat": 34.4702107,
      "lng": 131.7756025
    },
    {
      "no": 395,
      "region": "中国",
      "pref": "岡山県",
      "name": "道の駅 風の家",
      "category": "tourism",
      "subtype": "",
      "addr": "〒717-0612 岡山県真庭市蒜山上徳山1380-6",
      "lat": 35.276864,
      "lng": 133.6239257
    },
    {
      "no": 396,
      "region": "中国",
      "pref": "岡山県",
      "name": "あわくら温泉駅",
      "category": "tourism",
      "subtype": "",
      "addr": "〒707-0503 岡山県英田郡西粟倉村影石（あわくら温泉駅）",
      "lat": 35.1884942,
      "lng": 134.3368677
    },
    {
      "no": 397,
      "region": "中国",
      "pref": "岡山県",
      "name": "道の駅 久米の里",
      "category": "tourism",
      "subtype": "",
      "addr": "〒709-4613 岡山県津山市宮尾563-1",
      "lat": 35.056068,
      "lng": 133.9229266
    },
    {
      "no": 398,
      "region": "中国",
      "pref": "岡山県",
      "name": "道の駅 かもがわ円城",
      "category": "tourism",
      "subtype": "",
      "addr": "〒709-2413 岡山県加賀郡吉備中央町上田西2325-1",
      "lat": 34.8928085,
      "lng": 133.8139473
    },
    {
      "no": 399,
      "region": "中国",
      "pref": "岡山県",
      "name": "道の駅かよう",
      "category": "tourism",
      "subtype": "",
      "addr": "〒716-1551 岡山県加賀郡吉備中央町北1974",
      "lat": 34.816088,
      "lng": 133.7049484
    },
    {
      "no": 400,
      "region": "中国",
      "pref": "岡山県",
      "name": "ループ橋 展望公園",
      "category": "tourism",
      "subtype": "",
      "addr": "〒716-0041 岡山県高梁市上谷町（ループ橋展望公園）",
      "lat": 34.7814571,
      "lng": 133.6246578
    },
    {
      "no": 401,
      "region": "中国",
      "pref": "岡山県",
      "name": "高梁市成羽美術館",
      "category": "tourism",
      "subtype": "",
      "addr": "〒716-0111 岡山県高梁市成羽町下原1068-3",
      "lat": 34.7806679,
      "lng": 133.5366416
    },
    {
      "no": 402,
      "region": "中国",
      "pref": "岡山県",
      "name": "鬼ノ城 駐車場",
      "category": "tourism",
      "subtype": "",
      "addr": "〒719-1101 岡山県総社市奥坂（鬼ノ城駐車場）",
      "lat": 34.7261033,
      "lng": 133.7589994
    },
    {
      "no": 403,
      "region": "中国",
      "pref": "岡山県",
      "name": "道の駅 山陽道やかげ宿",
      "category": "tourism",
      "subtype": "",
      "addr": "〒714-1201 岡山県小田郡矢掛町矢掛1988-10",
      "lat": 34.6236445,
      "lng": 133.5919766
    },
    {
      "no": 404,
      "region": "中国",
      "pref": "岡山県",
      "name": "児島ジーンズストリート専用駐車場",
      "category": "tourism",
      "subtype": "",
      "addr": "〒711-0913 岡山県倉敷市児島味野1丁目13",
      "lat": 34.4725579,
      "lng": 133.8039307
    },
    {
      "no": 405,
      "region": "中国",
      "pref": "広島県",
      "name": "道の駅 舞ロードIC千代田",
      "category": "tourism",
      "subtype": "",
      "addr": "〒731-1533 広島県山県郡北広島町有田1122",
      "lat": 34.674642,
      "lng": 132.5416861
    },
    {
      "no": 406,
      "region": "中国",
      "pref": "広島県",
      "name": "三段峡聖湖口駐車場",
      "category": "tourism",
      "subtype": "",
      "addr": "〒731-2552 広島県山県郡北広島町西八幡原（三段峡聖湖口）",
      "lat": 34.6506166,
      "lng": 132.1685703
    },
    {
      "no": 407,
      "region": "中国",
      "pref": "広島県",
      "name": "道の駅三矢の里あきたかた",
      "category": "tourism",
      "subtype": "",
      "addr": "〒731-0523 広島県安芸高田市吉田町山手1059-1",
      "lat": 34.6478231,
      "lng": 132.6738328
    },