{
  "_note": "SSTR2026 公式指定スポット (XLSX由来)。category: shitei(3pt指定道の駅) / fukko(3pt指定能登復興応援) / kyoryoku(2pt協力道の駅)",
  "generated": "2026-04-30",
  "source": "SSTR2026_道の駅一覧.xlsx",
  "spots": [
    {
      "pref": "北海道",
      "city": "空知郡奈井江町",
      "name": "道の駅 ハウスヤルビ奈井江（ないえ）",
      "addr": "北海道空知郡奈井江町奈井江28-1",
      "pt": 3,
      "category": "shitei",
      "url": "",
      "memo": "喫茶 木菟（みみずく）が23年営業再開。",
      "lat": 43.433121,
      "lng": 141.888819
    },
    {
      "pref": "青森",
      "city": "上北郡横浜町",
      "name": "道の駅 よこはま",
      "addr": "青森県上北郡横浜町林ノ脇79-12",
      "pt": 3,
      "category": "shitei",
      "url": "",
      "memo": "早く走るより、一本道を東側農免道路をゆっくり走り菜の花を見ながら風を感じてほしい。",
      "lat": 41.08369,
      "lng": 141.257086
    },
    {
      "pref": "岩手",
      "city": "岩手郡葛巻町",
      "name": "道の駅 くずまき高原",
      "addr": "岩手県岩手郡葛巻町葛巻39-159-3",
      "pt": 3,
      "category": "shitei",
      "url": "",
      "memo": "北緯40度ミルクとワインの里。高原の恵みと酪農の伝統を未来へ繋ぐ。",
      "lat": 39.984416,
      "lng": 141.3399
    },
    {
      "pref": "宮城",
      "city": "石巻市",
      "name": "道の駅 硯上の里おがつ",
      "addr": "宮城県石巻市雄勝町下雄勝2-5",
      "pt": 3,
      "category": "shitei",
      "url": "",
      "memo": "震災を乗り越え雄勝硯の伝統を継承。復興を象徴する地域復興の拠点。",
      "lat": 38.520606,
      "lng": 141.468322
    },
    {
      "pref": "秋田",
      "city": "雄勝郡羽後町",
      "name": "道の駅 うご 端縫いの郷（はぬいのさと）",
      "addr": "秋田県雄勝郡羽後町西馬音内字中野200",
      "pt": 3,
      "category": "shitei",
      "url": "",
      "memo": "日本三大盆踊りのひとつである西馬音内盆踊りの伝統と共に。端縫い衣装の無料試着コーナーあり。",
      "lat": 39.200726,
      "lng": 140.413043
    },
    {
      "pref": "山形",
      "city": "新庄市",
      "name": "道の駅 新庄エコロジーガーデン原蚕の杜（げんさんのもり）",
      "addr": "山形県新庄市十日町6000-1",
      "pt": 3,
      "category": "shitei",
      "url": "",
      "memo": "養蚕の歴史を芸術と自然で紡ぎ直す。旧蚕糸試験場の新たな姿。",
      "lat": 38.781316,
      "lng": 140.312037
    },
    {
      "pref": "福島",
      "city": "伊達郡国見町",
      "name": "道の駅 国見 あつかしの郷",
      "addr": "福島県伊達郡国見町大字藤田字日渡二18-1",
      "pt": 3,
      "category": "shitei",
      "url": "",
      "memo": "震災からの歩みを止めることなく農業の力で街を活気づける。",
      "lat": 37.872731,
      "lng": 140.546771
    },
    {
      "pref": "栃木",
      "city": "芳賀郡茂木町",
      "name": "道の駅 もてぎ",
      "addr": "栃木県芳賀郡茂木町大字茂木1090-1",
      "pt": 3,
      "category": "shitei",
      "url": "",
      "memo": "86年茂木水害を克服し再始動。SLが走る街の賑わいを未来へ届ける。",
      "lat": 36.527966,
      "lng": 140.172594
    },
    {
      "pref": "茨城",
      "city": "笠間市",
      "name": "道の駅 かさま",
      "addr": "茨城県笠間市手越22-1",
      "pt": 3,
      "category": "shitei",
      "url": "",
      "memo": "21年開業。栗の産地として地域の魅力を次世代へ伝える。",
      "lat": 36.356026,
      "lng": 140.274381
    },
    {
      "pref": "群馬",
      "city": "甘楽郡下仁田町",
      "name": "道の駅 しもにた",
      "addr": "群馬県甘楽郡下仁田町大字馬山3766-11",
      "pt": 3,
      "category": "shitei",
      "url": "",
      "memo": "18年観光・防災の核施設としてフードコート等を備えリニューアル。",
      "lat": 36.223807,
      "lng": 138.80204
    },
    {
      "pref": "埼玉",
      "city": "秩父郡小鹿野町",
      "name": "道の駅 両神温泉薬師の湯",
      "addr": "埼玉県秩父郡小鹿野町両神薄2380",
      "pt": 3,
      "category": "shitei",
      "url": "",
      "memo": "24年3月リニューアルオープン。温泉の力で心身を解き放つ。",
      "lat": 36.005165,
      "lng": 138.971321
    },
    {
      "pref": "千葉",
      "city": "南房総市",
      "name": "道の駅 とみうら 枇杷倶楽部",
      "addr": "千葉県南房総市富浦町青木123-1",
      "pt": 3,
      "category": "shitei",
      "url": "",
      "memo": "25年10月マルシェ棟を増築してリニューアルオープン。",
      "lat": 35.0376,
      "lng": 139.837439
    },
    {
      "pref": "東京",
      "city": "あきる野市",
      "name": "十里木駐車場",
      "addr": "東京都あきる野市戸倉1379",
      "pt": 3,
      "category": "shitei",
      "url": "",
      "memo": "秋川渓谷へのアクセス拠点。自然と共生する無料駐車場。",
      "lat": 35.727908,
      "lng": 139.190305
    },
    {
      "pref": "神奈川",
      "city": "南足柄市",
      "name": "道の駅 足柄・金太郎のふるさと",
      "addr": "神奈川県南足柄市竹松1117-1",
      "pt": 3,
      "category": "shitei",
      "url": "",
      "memo": "⾜柄きんたろーみるくsoftのオープンで25年10月リニューアル。",
      "lat": 35.326156,
      "lng": 139.118412
    },
    {
      "pref": "新潟",
      "city": "上越市",
      "name": "道の駅 うみてらす名立",
      "addr": "新潟県上越市名立区名立大町4280-1",
      "pt": 3,
      "category": "shitei",
      "url": "",
      "memo": "名立の海と食が響き合う、笑顔あふれる憩いの拠点。",
      "lat": 37.163448,
      "lng": 138.0867
    },
    {
      "pref": "山梨",
      "city": "南巨摩郡南部町",
      "name": "道の駅 なんぶ",
      "addr": "山梨県南巨摩郡南部町中野3034-1",
      "pt": 3,
      "category": "shitei",
      "url": "",
      "memo": "地域活性化の拠点。自然・歴史・グルメを五感で楽しめる体感型スポット。",
      "lat": 35.306403,
      "lng": 138.447074
    },
    {
      "pref": "長野",
      "city": "下伊那郡平谷村",
      "name": "道の駅 信州平谷",
      "addr": "長野県下伊那郡平谷村252",
      "pt": 3,
      "category": "shitei",
      "url": "",
      "memo": "高原のオアシス。天然温泉と星空で、心身を潤し明日への活力を再生。",
      "lat": 35.325034,
      "lng": 137.632139
    },
    {
      "pref": "岐阜",
      "city": "高山市",
      "name": "道の駅 ななもり清見",
      "addr": "岐阜県高山市清見町牧ヶ洞2145",
      "pt": 3,
      "category": "shitei",
      "url": "",
      "memo": "25年3月レストランななもりがリニューアル。飛騨の伝統を次世代へ。",
      "lat": 36.133747,
      "lng": 137.166938
    },
    {
      "pref": "静岡",
      "city": "伊豆市",
      "name": "道の駅 伊豆月ケ瀬",
      "addr": "静岡県伊豆市月ヶ瀬78-2",
      "pt": 3,
      "category": "shitei",
      "url": "",
      "memo": "25年5月防災道の駅に選定。災害発生時に地域復興の拠点に。",
      "lat": 34.922448,
      "lng": 138.932049
    },
    {
      "pref": "愛知",
      "city": "日進市",
      "name": "道の駅 マチテラス日進",
      "addr": "愛知県日進市本郷町前田33",
      "pt": 3,
      "category": "shitei",
      "url": "",
      "memo": "25年8月オープン。子育て世代と農業を未来に繋ぐ地域交流拠点。",
      "lat": 35.137907,
      "lng": 137.043644
    },
    {
      "pref": "富山",
      "city": "射水市",
      "name": "道の駅 まるごと射水（旧 道の駅カモンパーク新湊）",
      "addr": "富山県射水市鏡宮296",
      "pt": 3,
      "category": "shitei",
      "url": "",
      "memo": "25年11月カモンパーク新湊が進化。射水の魅力をまるごと伝える新章へ。",
      "lat": 36.751986,
      "lng": 137.084905
    },
    {
      "pref": "石川",
      "city": "小松市",
      "name": "道の駅 こまつ木場潟（きばがた）",
      "addr": "石川県小松市蓮代寺町ケ2-2",
      "pt": 3,
      "category": "shitei",
      "url": "",
      "memo": "木場潟の自然を次代へ。小松の食と農を繋ぐ憩いの場。",
      "lat": 36.370258,
      "lng": 136.46294
    },
    {
      "pref": "福井",
      "city": "南条郡南越前町",
      "name": "道の駅 南えちぜん山海里",
      "addr": "福井県南条郡南越前町牧谷39-2-2",
      "pt": 3,
      "category": "shitei",
      "url": "",
      "memo": "山と海と里を繋ぐ新たな体験。遊びと食が交差する期待の拠点。",
      "lat": 35.831604,
      "lng": 136.201296
    },
    {
      "pref": "三重",
      "city": "亀山市",
      "name": "道の駅 関宿",
      "addr": "三重県亀山市関町新所674-8",
      "pt": 3,
      "category": "shitei",
      "url": "",
      "memo": "歴史ある宿場町の玄関口。江戸の町並みを未来へ繋ぐ。",
      "lat": 34.849437,
      "lng": 136.392729
    },
    {
      "pref": "滋賀",
      "city": "大津市",
      "name": "道の駅 妹子の郷",
      "addr": "滋賀県大津市和邇中528",
      "pt": 3,
      "category": "shitei",
      "url": "",
      "memo": "25年5月防災道の駅に選定。災害時の復旧・復興活動の拠点に。",
      "lat": 35.159763,
      "lng": 135.901568
    },
    {
      "pref": "京都",
      "city": "南丹市",
      "name": "道の駅 京都新光悦村",
      "addr": "京都府南丹市園部町曽我谷縄手15-3",
      "pt": 3,
      "category": "shitei",
      "url": "",
      "memo": "地元米と伝統の味にこだわった巻き寿司が名物。地元の味を未来へ継承。",
      "lat": 35.123786,
      "lng": 135.482187
    },
    {
      "pref": "大阪",
      "city": "和泉市",
      "name": "道の駅 いずみ山愛（やまあい）の里",
      "addr": "大阪府和泉市仏並町398-1",
      "pt": 3,
      "category": "shitei",
      "url": "",
      "memo": "22年売り場面積を拡大しリニューアル。地元食材を使ったレストランも。",
      "lat": 34.423153,
      "lng": 135.483002
    },
    {
      "pref": "兵庫",
      "city": "豊岡市",
      "name": "道の駅 神鍋（かんなべ）高原",
      "addr": "兵庫県豊岡市日高町栗栖野59-13",
      "pt": 3,
      "category": "shitei",
      "url": "",
      "memo": "売店・直売所をリニューアル（26年6月予定）。温泉で旅の疲れを回復。",
      "lat": 35.499061,
      "lng": 134.675006
    },
    {
      "pref": "奈良",
      "city": "天理市",
      "name": "道の駅 なら歴史芸術文化村",
      "addr": "奈良県天理市杣之内町437-3",
      "pt": 3,
      "category": "shitei",
      "url": "",
      "memo": "文化の灯を絶やさず次代へ。1400年以上の歴史を繋ぐ芸術活動の拠点。",
      "lat": 34.589072,
      "lng": 135.847219
    },
    {
      "pref": "和歌山",
      "city": "田辺市",
      "name": "道の駅 水の郷日高川 龍游（りゅうゆう）",
      "addr": "和歌山県田辺市龍神村福井511",
      "pt": 3,
      "category": "shitei",
      "url": "",
      "memo": "目の前に水辺が広がる日高川の自然と共生する癒やしの里。",
      "lat": 33.895071,
      "lng": 135.439382
    },
    {
      "pref": "鳥取",
      "city": "東伯郡北栄町",
      "name": "道の駅 ほうじょう",
      "addr": "鳥取県東伯郡北栄町国坂1525-92",
      "pt": 3,
      "category": "shitei",
      "url": "",
      "memo": "砂丘の風に吹かれて。25年4月リニューアルオープンの憩いの新拠点。",
      "lat": 35.49761,
      "lng": 133.820585
    },
    {
      "pref": "島根",
      "city": "雲南市",
      "name": "道の駅 掛合の里",
      "addr": "島根県雲南市掛合町大字掛合1800-2",
      "pt": 3,
      "category": "shitei",
      "url": "",
      "memo": "19年元祖 道の駅がより利用しやすく快適に進化。ファミリー憩いの場に。",
      "lat": 35.211087,
      "lng": 132.816956
    },
    {
      "pref": "広島",
      "city": "安芸高田市",
      "name": "道の駅 三矢の里あきたかた",
      "addr": "広島県安芸高田市吉田町山手1059番地1",
      "pt": 3,
      "category": "shitei",
      "url": "",
      "memo": "20年開業。毛利元就と野菜をテーマに地域の絆を育むモダンな交流拠点。",
      "lat": 34.647823,
      "lng": 132.673833
    },
    {
      "pref": "岡山",
      "city": "津山市",
      "name": "道の駅 久米の里",
      "addr": "岡山県津山市宮尾563-1",
      "pt": 3,
      "category": "shitei",
      "url": "",
      "memo": "巨大モビルスーツが守る街の活気。地域の創意工夫で未来を拓く。",
      "lat": 35.056068,
      "lng": 133.922927
    },
    {
      "pref": "山口",
      "city": "美祢市",
      "name": "道の駅 みとう",
      "addr": "山口県美祢市美東町大田近光5480-1",
      "pt": 3,
      "category": "shitei",
      "url": "",
      "memo": "河川親水公園が隣接。大田川の自然と共生する安らぎの場所。",
      "lat": 34.217655,
      "lng": 131.344303
    },
    {
      "pref": "徳島",
      "city": "美馬郡つるぎ町",
      "name": "道の駅 貞光ゆうゆう館",
      "addr": "徳島県美馬郡つるぎ町貞光字大須賀11-1",
      "pt": 3,
      "category": "shitei",
      "url": "",
      "memo": "吉野川を望む絶景とともに、ゆうゆうスポーツ広場で活力を再生。",
      "lat": 34.042626,
      "lng": 134.06003
    },
    {
      "pref": "香川",
      "city": "綾歌郡綾川町",
      "name": "道の駅 滝宮",
      "addr": "香川県綾歌郡綾川町滝宮字川西1578",
      "pt": 3,
      "category": "shitei",
      "url": "",
      "memo": "リニューアル5周年。うどん発祥の地で、伝統の味と賑わいを未来へ届ける。",
      "lat": 34.250419,
      "lng": 133.916899
    },
    {
      "pref": "高知",
      "city": "南国市",
      "name": "道の駅 南国風良里（なんこくふらり）",
      "addr": "高知県南国市左右山102-1",
      "pt": 3,
      "category": "shitei",
      "url": "",
      "memo": "土佐の玄関口。26年2月ショップ風良里がリニューアルオープン。",
      "lat": 33.611101,
      "lng": 133.642086
    },
    {
      "pref": "愛媛",
      "city": "新居浜市",
      "name": "道の駅 マイントピア別子",
      "addr": "愛媛県新居浜市立川町707-3",
      "pt": 3,
      "category": "shitei",
      "url": "",
      "memo": "別子銅山最後の採鉱本部跡地を再利用。産業の歩みを観光の力に再構築。",
      "lat": 33.90147,
      "lng": 133.30951
    },
    {
      "pref": "福岡",
      "city": "みやま市",
      "name": "道の駅 みやま",
      "addr": "福岡県みやま市瀬高町大江2328",
      "pt": 3,
      "category": "shitei",
      "url": "",
      "memo": "筑後の豊かな実りが集結！食の喜びを明日への活力に。",
      "lat": 33.1474,
      "lng": 130.483952
    },
    {
      "pref": "佐賀",
      "city": "嬉野市",
      "name": "道の駅 うれしの まるく",
      "addr": "佐賀県嬉野市嬉野町大字下宿甲4766-1",
      "pt": 3,
      "category": "shitei",
      "url": "",
      "memo": "宿場町の賑わい再び！22年西九州新幹線の開業にあわせてオープン。",
      "lat": 33.106708,
      "lng": 129.997106
    },
    {
      "pref": "長崎",
      "city": "諫早市",
      "name": "道の駅 251いいもりじゃがーロード",
      "addr": "長崎県諫早市飯盛町上原1376番地",
      "pt": 3,
      "category": "shitei",
      "url": "",
      "memo": "25年11月国道251号沿いの畑の真ん中にオープン。諫早産の新鮮な農林水産物をはじめ、地元のじゃがいもで作ったコロッケが人気。",
      "lat": 32.785668,
      "lng": 130.045854
    },
    {
      "pref": "宮崎",
      "city": "延岡市",
      "name": "道の駅 北川はゆま",
      "addr": "宮崎県延岡市北川町長井5751-1",
      "pt": 3,
      "category": "shitei",
      "url": "",
      "memo": "97年豪雨災害をきっかけに、23年防災道の駅としてリニューアル。",
      "lat": 32.666139,
      "lng": 131.704479
    },
    {
      "pref": "熊本",
      "city": "球磨郡錦町",
      "name": "道の駅 錦",
      "addr": "熊本県球磨郡錦町大字一武字浦田1544-1",
      "pt": 3,
      "category": "shitei",
      "url": "",
      "memo": "25年3月物産館の増改築が完了。歴史が響き合う剣豪の里。",
      "lat": 32.205696,
      "lng": 130.844861
    },
    {
      "pref": "大分",
      "city": "豊後大野市",
      "name": "道の駅 あさじ",
      "addr": "大分県豊後大野市朝地町板井迫1018-1",
      "pt": 3,
      "category": "shitei",
      "url": "",
      "memo": "道の駅オリジナルのカボスサイダーがパッケージをリニューアル。",
      "lat": 33.002771,
      "lng": 131.447953
    },
    {
      "pref": "鹿児島",
      "city": "薩摩川内市",
      "name": "道の駅 樋脇（ひわき）",
      "addr": "鹿児島県薩摩川内市樋脇町市比野156",
      "pt": 3,
      "category": "shitei",
      "url": "",
      "memo": "古湯の街に新たな息吹。20年リニューアルオープン。",
      "lat": 31.796425,
      "lng": 130.407394
    },
    {
      "pref": "沖縄",
      "city": "国頭郡",
      "name": "道の駅 ぎのざ",
      "addr": "沖縄県国頭郡宜野座字漢那1633",
      "pt": 3,
      "category": "shitei",
      "url": "",
      "memo": "大型遊具が家族連れに大人気。体験型拠点として沖縄の魅力を次世代へ。",
      "lat": 26.473735,
      "lng": 127.952096
    },
    {
      "pref": "珠洲市",
      "city": "珠洲市",
      "name": "道の駅 狼煙",
      "addr": "石川県珠洲市狼煙町テ部11",
      "pt": 3,
      "category": "fukko",
      "url": "",
      "memo": "珠洲の在来種を原材料に用いた地豆腐や豆乳ソフトクリーム、そばが人気。",
      "lat": 37.525981,
      "lng": 137.32441
    },
    {
      "pref": "珠洲市",
      "city": "珠洲市",
      "name": "道の駅 すずなり",
      "addr": "石川県珠洲市野々江町シ-15",
      "pt": 3,
      "category": "fukko",
      "url": "",
      "memo": "揚げ浜式製塩を使用したソフトクリームが名物。",
      "lat": 37.44144,
      "lng": 137.270141
    },
    {
      "pref": "珠洲市",
      "city": "珠洲市",
      "name": "道の駅 すず塩田村",
      "addr": "石川県珠洲市清水町1-58-1",
      "pt": 3,
      "category": "fukko",
      "url": "",
      "memo": "昨年3月営業再開。伝統の製法の奥能登揚げ浜塩が人気。",
      "lat": 37.486326,
      "lng": 137.113052
    },
    {
      "pref": "輪島市",
      "city": "輪島市",
      "name": "道の駅 赤神",
      "addr": "石川県輪島市門前町赤神壱110",
      "pt": 3,
      "category": "fukko",
      "url": "",
      "memo": "天然フグの唐揚げや海産物など地元の特産品を販売。",
      "lat": 37.248102,
      "lng": 136.709933
    },
    {
      "pref": "輪島市",
      "city": "輪島市",
      "name": "道の駅 輪島",
      "addr": "石川県輪島市河井町20-1-131",
      "pt": 3,
      "category": "fukko",
      "url": "",
      "memo": "漆製品やいしる（魚醤）など地域の特産物を販売。",
      "lat": 37.388915,
      "lng": 136.906273
    },
    {
      "pref": "輪島市",
      "city": "輪島市",
      "name": "道の駅 のと里山空港",
      "addr": "石川県輪島市三井町洲衛10-11-1",
      "pt": 3,
      "category": "fukko",
      "url": "",
      "memo": "能登半島中央部付近に位置し空港の機能を併せもつ。",
      "lat": 37.295509,
      "lng": 136.957585
    },
    {
      "pref": "輪島市",
      "city": "輪島市",
      "name": "道の駅 千枚田ポケットパーク",
      "addr": "石川県輪島市白米町ハ部99-5",
      "pt": 3,
      "category": "fukko",
      "url": "",
      "memo": "世界農業遺産 白米千枚田を眼下に望む。",
      "lat": 37.424133,
      "lng": 136.998061
    },
    {
      "pref": "能登町",
      "city": "鳳珠郡能登町",
      "name": "道の駅 桜峠",
      "addr": "石川県鳳珠郡能登町字当目2-24-24",
      "pt": 3,
      "category": "fukko",
      "url": "",
      "memo": "ブルーベリーソフトとカレーパンがイチオシ。",
      "lat": 37.331767,
      "lng": 137.011175
    },
    {
      "pref": "七尾市",
      "city": "七尾市",
      "name": "道の駅 なかじまロマン峠",
      "addr": "石川県七尾市中島町中島二部1-19",
      "pt": 3,
      "category": "fukko",
      "url": "",
      "memo": "特産品の中島菜ソフトクリームがイチオシです。",
      "lat": 37.13054,
      "lng": 136.863445
    },
    {
      "pref": "七尾市",
      "city": "七尾市",
      "name": "道の駅 いおり",
      "addr": "石川県七尾市庵町笹ヶ谷内3-1",
      "pt": 3,
      "category": "fukko",
      "url": "",
      "memo": "富山湾を挟んで立山連峰を一望できる絶景スポット。",
      "lat": 37.028369,
      "lng": 137.04707
    },
    {
      "pref": "七尾市",
      "city": "七尾市",
      "name": "道の駅 能登食祭市場",
      "addr": "石川県七尾市府中町員外13-1",
      "pt": 3,
      "category": "fukko",
      "url": "",
      "memo": "能登の海の幸が豊富。旬の味覚をその場で楽しめる。",
      "lat": 37.048914,
      "lng": 136.968823
    },
    {
      "pref": "穴水町",
      "city": "鳳珠郡穴水町",
      "name": "道の駅 あなみず",
      "addr": "石川県鳳珠郡穴水町字大町チ41-6",
      "pt": 3,
      "category": "fukko",
      "url": "",
      "memo": "穴水町出身 遠藤関グッズや能登のお土産が揃う。",
      "lat": 37.228268,
      "lng": 136.904686
    },
    {
      "pref": "中能登町",
      "city": "鹿島郡中能登町",
      "name": "道の駅 織姫の里なかのと",
      "addr": "石川県鹿島郡中能登町井田ぬ部10-1",
      "pt": 3,
      "category": "fukko",
      "url": "",
      "memo": "地元の方に人気の手作り総菜や、珍しい地元野菜、能登のお土産が買えます。",
      "lat": 36.969815,
      "lng": 136.904841
    },
    {
      "pref": "志賀町",
      "city": "羽咋郡志賀町",
      "name": "道の駅 とぎ海街道",
      "addr": "石川県羽咋郡志賀町富来領家町タ2-11",
      "pt": 3,
      "category": "fukko",
      "url": "",
      "memo": "世界一長いベンチや日帰り入浴施設が隣接。",
      "lat": 37.140226,
      "lng": 136.725296
    },
    {
      "pref": "志賀町",
      "city": "羽咋郡志賀町",
      "name": "道の駅 ころ柿の里しか",
      "addr": "石川県羽咋郡志賀町末吉新保向10",
      "pt": 3,
      "category": "fukko",
      "url": "",
      "memo": "高級干し柿のころ柿ソフトクリームが人気。",
      "lat": 37.007048,
      "lng": 136.779783
    },
    {
      "pref": "内灘町",
      "city": "河北郡内灘町",
      "name": "道の駅 内灘サンセットパーク",
      "addr": "石川県河北郡内灘町字大学1-4-1",
      "pt": 3,
      "category": "fukko",
      "url": "",
      "memo": "石川県のこだわりの商品を集めた物販コーナーが人気です。",
      "lat": 36.658914,
      "lng": 136.649244
    },
    {
      "pref": "氷見市",
      "city": "氷見市",
      "name": "道の駅 氷見",
      "addr": "富山県氷見市北大町25-5",
      "pt": 3,
      "category": "fukko",
      "url": "",
      "memo": "北陸エリア最大級30の専門店・飲食店が一堂に集結。",
      "lat": 36.863969,
      "lng": 136.987294
    },
    {
      "pref": "糸魚川市",
      "city": "糸魚川市",
      "name": "道の駅 マリンドリーム能生",
      "addr": "新潟県糸魚川市大字能生小泊3596-2",
      "pt": 3,
      "category": "fukko",
      "url": "",
      "memo": "日本一のベニズワイガニ直売所 かにや横丁がある。",
      "lat": 37.113641,
      "lng": 138.004441
    },
    {
      "pref": "飛騨市",
      "city": "飛騨市",
      "name": "道の駅 宙ドーム・神岡",
      "addr": "岐阜県飛騨市神岡町夕陽ヶ丘6",
      "pt": 2,
      "category": "kyoryoku",
      "url": "",
      "memo": "",
      "lat": 36.328953,
      "lng": 137.307188
    },
    {
      "pref": "八頭郡",
      "city": "八頭郡八頭町",
      "name": "道の駅 はっとう",
      "addr": "鳥取県八頭郡八頭町徳丸625",
      "pt": 2,
      "category": "kyoryoku",
      "url": "",
      "memo": "",
      "lat": 35.366478,
      "lng": 134.339651
    },
    {
      "pref": "神崎郡",
      "city": "神崎郡神河町",
      "name": "道の駅 銀の馬車道・神河（4/6追加）",
      "addr": "兵庫県神崎郡神河町吉冨88-10",
      "pt": 2,
      "category": "kyoryoku",
      "url": "",
      "memo": "",
      "lat": 35.091195,
      "lng": 134.778118
    },
    {
      "pref": "郡上市",
      "city": "郡上市",
      "name": "道の駅 明宝（磨墨の里）（4/20追加）",
      "addr": "岐阜県郡上市明宝大谷1015",
      "pt": 2,
      "category": "kyoryoku",
      "url": "",
      "memo": "",
      "lat": 35.845332,
      "lng": 137.028798
    }
  ]
}