{
  "_note": "SSTR2026 公式指定スポット。category: shitei(3pt指定道の駅) / fukko(3pt指定能登復興応援) / kyoryoku(2pt協力道の駅)",
  "generated": "2026-04-23",
  "spots": [
    {
      "pref": "北海道",
      "city": "空知郡奈井江町",
      "name": "道の駅 ハウスヤルビ奈井江",
      "addr": "北海道空知郡奈井江町奈井江28-1",
      "pt": 3,
      "category": "shitei",
      "url": "https://www.michi-no-eki.jp/stations/views/18811",
      "memo": "喫茶 木菟（みみずく）が23年営業再開。",
      "lat": 43.433121,
      "lng": 141.888819
    },
    {
      "pref": "青森",
      "city": "上北郡横浜町",
      "name": "道の駅 よこはま",
      "addr": "青森県上北郡横浜町林ノ脇79-12",
      "pt": 3,
      "category": "shitei",
      "url": "https://www.michi-no-eki.jp/stations/views/18917",
      "memo": "菜の花畑と東側農免道路",
      "lat": 41.0836896,
      "lng": 141.2570857
    },
    {
      "pref": "岩手",
      "city": "岩手郡葛巻町",
      "name": "道の駅 くずまき高原",
      "addr": "岩手県岩手郡葛巻町葛巻39-159-3",
      "pt": 3,
      "category": "shitei",
      "url": "https://www.michi-no-eki.jp/stations/views/18946",
      "memo": "北緯40度ミルクとワインの里",
      "lat": 39.9844161,
      "lng": 141.3398999
    },
    {
      "pref": "宮城",
      "city": "石巻市",
      "name": "道の駅 硯上の里おがつ",
      "addr": "宮城県石巻市雄勝町下雄勝2-5",
      "pt": 3,
      "category": "shitei",
      "url": "https://www.michi-no-eki.jp/stations/views/19964",
      "memo": "雄勝硯の伝統を継承",
      "lat": 38.52060609999999,
      "lng": 141.4683216
    },
    {
      "pref": "秋田",
      "city": "雄勝郡羽後町",
      "name": "道の駅 うご 端縫いの郷",
      "addr": "秋田県雄勝郡羽後町西馬音内字中野200",
      "pt": 3,
      "category": "shitei",
      "url": "https://www.michi-no-eki.jp/stations/views/19860",
      "memo": "西馬音内盆踊り、端縫い衣装試着",
      "lat": 39.2007261,
      "lng": 140.4130427
    },
    {
      "pref": "山形",
      "city": "新庄市",
      "name": "道の駅 新庄エコロジーガーデン原蚕の杜",
      "addr": "山形県新庄市十日町6000-1",
      "pt": 3,
      "category": "shitei",
      "url": "https://www.michi-no-eki.jp/stations/views/22685",
      "memo": "養蚕の歴史を芸術と自然で紡ぎ直す",
      "lat": 38.7813164,
      "lng": 140.3120372
    },
    {
      "pref": "福島",
      "city": "伊達郡国見町",
      "name": "道の駅 国見 あつかしの郷",
      "addr": "福島県伊達郡国見町大字藤田字日渡二18-1",
      "pt": 3,
      "category": "shitei",
      "url": "https://www.michi-no-eki.jp/stations/views/19877",
      "memo": "国見バーガー、ジェラート50円引き（立寄特典）",
      "lat": 37.8727314,
      "lng": 140.5467713
    },
    {
      "pref": "栃木",
      "city": "芳賀郡茂木町",
      "name": "道の駅 もてぎ",
      "addr": "栃木県芳賀郡茂木町大字茂木1090-1",
      "pt": 3,
      "category": "shitei",
      "url": "https://www.michi-no-eki.jp/stations/views/19054",
      "memo": "SLが走る街。アイス50円キャッシュバック（特典）",
      "lat": 36.52796600000001,
      "lng": 140.1725936
    },
    {
      "pref": "茨城",
      "city": "笠間市",
      "name": "道の駅 かさま",
      "addr": "茨城県笠間市手越22-1",
      "pt": 3,
      "category": "shitei",
      "url": "https://www.michi-no-eki.jp/stations/views/19972",
      "memo": "COWCOWジェラートサイズアップ（特典）",
      "lat": 36.3561481,
      "lng": 140.2746481
    },
    {
      "pref": "群馬",
      "city": "甘楽郡下仁田町",
      "name": "道の駅 しもにた",
      "addr": "群馬県甘楽郡下仁田町大字馬山3766-11",
      "pt": 3,
      "category": "shitei",
      "url": "https://www.michi-no-eki.jp/stations/views/19091",
      "lat": 36.2238,
      "lng": 138.802,
      "memo": "ジャージー牛乳焼きプリン50円引き（特典）"
    },
    {
      "pref": "埼玉",
      "city": "秩父郡小鹿野町",
      "name": "道の駅 両神温泉薬師の湯",
      "addr": "埼玉県秩父郡小鹿野町両神薄2380",
      "pt": 3,
      "category": "shitei",
      "url": "https://www.michi-no-eki.jp/stations/views/19114",
      "memo": "24年3月リニューアル、温泉",
      "lat": 36.0051647,
      "lng": 138.9713206
    },
    {
      "pref": "千葉",
      "city": "南房総市",
      "name": "道の駅 とみうら 枇杷倶楽部",
      "addr": "千葉県南房総市富浦町青木123-1",
      "pt": 3,
      "category": "shitei",
      "url": "https://www.michi-no-eki.jp/stations/views/19125",
      "memo": "25年10月マルシェ棟増築リニューアル",
      "lat": 35.0376001,
      "lng": 139.8374389
    },
    {
      "pref": "東京",
      "city": "あきる野市",
      "name": "十里木駐車場",
      "addr": "東京都あきる野市戸倉1379",
      "pt": 3,
      "category": "shitei",
      "url": "https://maps.app.goo.gl/rRP9kxYRCLGQsbn69",
      "memo": "秋川渓谷アクセス拠点。無料駐車場",
      "lat": 35.7279081,
      "lng": 139.1903055
    },
    {
      "pref": "神奈川",
      "city": "南足柄市",
      "name": "道の駅 足柄・金太郎のふるさと",
      "addr": "神奈川県南足柄市竹松1117-1",
      "pt": 3,
      "category": "shitei",
      "url": "https://www.michi-no-eki.jp/stations/views/19946",
      "memo": "5/23・5/30 5-7時 限定特典(ステッカー/チルドカップ)",
      "lat": 35.326156,
      "lng": 139.1184123
    },
    {
      "pref": "新潟",
      "city": "上越市",
      "name": "道の駅 うみてらす名立",
      "addr": "新潟県上越市名立区名立大町4280-1",
      "pt": 3,
      "category": "shitei",
      "url": "https://www.michi-no-eki.jp/stations/views/19232",
      "lat": 37.1634,
      "lng": 138.0867,
      "memo": "焼幻魚進呈(先着5名)/出陣餅ソフト100円引き"
    },
    {
      "pref": "山梨",
      "city": "南巨摩郡南部町",
      "name": "道の駅 なんぶ",
      "addr": "山梨県南巨摩郡南部町中野3034-1",
      "pt": 3,
      "category": "shitei",
      "url": "https://www.michi-no-eki.jp/stations/views/19906",
      "memo": "なんぶ茶ペットボトルプレゼント（特典）",
      "lat": 35.306403,
      "lng": 138.4470738
    },
    {
      "pref": "長野",
      "city": "下伊那郡平谷村",
      "name": "道の駅 信州平谷",
      "addr": "長野県下伊那郡平谷村252",
      "pt": 3,
      "category": "shitei",
      "url": "https://www.michi-no-eki.jp/stations/views/19277",
      "memo": "ひまわりの湯入浴料100円引（特典）",
      "lat": 35.3232905,
      "lng": 137.6302506
    },
    {
      "pref": "岐阜",
      "city": "高山市",
      "name": "道の駅 ななもり清見",
      "addr": "岐阜県高山市清見町牧ヶ洞2145",
      "pt": 3,
      "category": "shitei",
      "url": "https://www.michi-no-eki.jp/stations/views/19306",
      "memo": "飛騨牛ほう葉みそ焼肉御膳10%OFF（特典）",
      "lat": 36.1337467,
      "lng": 137.1669382
    },
    {
      "pref": "静岡",
      "city": "伊豆市",
      "name": "道の駅 伊豆月ケ瀬",
      "addr": "静岡県伊豆市月ヶ瀬78-2",
      "pt": 3,
      "category": "shitei",
      "url": "https://www.michi-no-eki.jp/stations/views/19940",
      "memo": "防災道の駅。一般客への配慮を",
      "lat": 34.9224479,
      "lng": 138.9320487
    },
    {
      "pref": "愛知",
      "city": "日進市",
      "name": "道の駅 マチテラス日進",
      "addr": "愛知県日進市本郷町前田33",
      "pt": 3,
      "category": "shitei",
      "url": "https://www.michi-no-eki.jp/stations/views/22526",
      "memo": "25年8月オープン、1000円以上でソフト進呈（特典）",
      "lat": 35.1379071,
      "lng": 137.0436445
    },
    {
      "pref": "富山",
      "city": "射水市",
      "name": "道の駅 まるごと射水",
      "addr": "富山県射水市鏡宮296",
      "pt": 3,
      "category": "shitei",
      "url": "https://www.michi-no-eki.jp/stations/views/19245",
      "lat": 36.752,
      "lng": 137.0851,
      "memo": "旧カモンパーク新湊。ソフト50円引（特典）"
    },
    {
      "pref": "石川",
      "city": "小松市",
      "name": "道の駅 こまつ木場潟",
      "addr": "石川県小松市蓮代寺町ケ2-2",
      "pt": 3,
      "category": "shitei",
      "url": "https://www.michi-no-eki.jp/stations/views/19269",
      "memo": "小松市産トマトカレー2割引（特典）",
      "lat": 36.3702585,
      "lng": 136.4629402
    },
    {
      "pref": "福井",
      "city": "南条郡南越前町",
      "name": "道の駅 南えちぜん山海里",
      "addr": "福井県南条郡南越前町牧谷39-2-2",
      "pt": 3,
      "category": "shitei",
      "url": "https://www.michi-no-eki.jp/stations/views/19968",
      "memo": "SSTR専用駐輪場有。1000円以上で100円引（特典）",
      "lat": 35.8316038,
      "lng": 136.2012963
    },
    {
      "pref": "三重",
      "city": "亀山市",
      "name": "道の駅 関宿",
      "addr": "三重県亀山市関町新所674-8",
      "pt": 3,
      "category": "shitei",
      "url": "https://www.michi-no-eki.jp/stations/views/19387",
      "memo": "歴史ある宿場町の玄関口",
      "lat": 34.849437,
      "lng": 136.392729
    },
    {
      "pref": "滋賀",
      "city": "大津市",
      "name": "道の駅 妹子の郷",
      "addr": "滋賀県大津市和邇中528",
      "pt": 3,
      "category": "shitei",
      "url": "https://www.michi-no-eki.jp/stations/views/19422",
      "memo": "防災道の駅。ソフト100円引（特典）",
      "lat": 35.159763,
      "lng": 135.9015676
    },
    {
      "pref": "京都",
      "city": "南丹市",
      "name": "道の駅 京都新光悦村",
      "addr": "京都府南丹市園部町曽我谷縄手15-3",
      "pt": 3,
      "category": "shitei",
      "url": "https://www.michi-no-eki.jp/stations/views/19433",
      "memo": "5/25は定休日注意。フリアン50円引（特典）",
      "lat": 35.1237859,
      "lng": 135.4821871
    },
    {
      "pref": "大阪",
      "city": "和泉市",
      "name": "道の駅 いずみ山愛の里",
      "addr": "大阪府和泉市仏並町398-1",
      "pt": 3,
      "category": "shitei",
      "url": "https://www.michi-no-eki.jp/stations/views/19445",
      "memo": "つむぎソフト100円引（特典）",
      "lat": 34.4231529,
      "lng": 135.4830017
    },
    {
      "pref": "兵庫",
      "city": "豊岡市",
      "name": "道の駅 神鍋高原",
      "addr": "兵庫県豊岡市日高町栗栖野59-13",
      "pt": 3,
      "category": "shitei",
      "url": "https://www.michi-no-eki.jp/stations/views/19451",
      "memo": "改修中、売店仮設。瓦せんべいプレゼント（特典）",
      "lat": 35.4990606,
      "lng": 134.6750059
    },
    {
      "pref": "奈良",
      "city": "天理市",
      "name": "道の駅 なら歴史芸術文化村",
      "addr": "奈良県天理市杣之内町437-3",
      "pt": 3,
      "category": "shitei",
      "url": "https://www.michi-no-eki.jp/stations/views/19974",
      "memo": "バイク駐車枠9台のみ",
      "lat": 34.589072,
      "lng": 135.8472186
    },
    {
      "pref": "和歌山",
      "city": "田辺市",
      "name": "道の駅 水の郷日高川 龍游",
      "addr": "和歌山県田辺市龍神村福井511",
      "pt": 3,
      "category": "shitei",
      "url": "https://www.michi-no-eki.jp/stations/views/19503",
      "memo": "日高川の自然と共生する癒やしの里",
      "lat": 33.8950707,
      "lng": 135.439382
    },
    {
      "pref": "鳥取",
      "city": "東伯郡北栄町",
      "name": "道の駅 ほうじょう",
      "addr": "鳥取県東伯郡北栄町国坂1525-92",
      "pt": 3,
      "category": "shitei",
      "url": "https://www.michi-no-eki.jp/stations/views/19518",
      "memo": "25年4月リニューアル",
      "lat": 35.4976104,
      "lng": 133.8205851
    },
    {
      "pref": "島根",
      "city": "雲南市",
      "name": "道の駅 掛合の里",
      "addr": "島根県雲南市掛合町大字掛合1800-2",
      "pt": 3,
      "category": "shitei",
      "url": "https://www.michi-no-eki.jp/stations/views/19528",
      "memo": "元祖道の駅。ソフト50円引（特典）",
      "lat": 35.2110865,
      "lng": 132.8169557
    },
    {
      "pref": "広島",
      "city": "安芸高田市",
      "name": "道の駅 三矢の里あきたかた",
      "addr": "広島県安芸高田市吉田町山手1059番地1",
      "pt": 3,
      "category": "shitei",
      "url": "https://www.michi-no-eki.jp/stations/views/19952",
      "memo": "夜叉うどん注文で白ごはんサービス（特典）",
      "lat": 34.6478231,
      "lng": 132.6738328
    },
    {
      "pref": "岡山",
      "city": "津山市",
      "name": "道の駅 久米の里",
      "addr": "岡山県津山市宮尾563-1",
      "pt": 3,
      "category": "shitei",
      "url": "https://www.michi-no-eki.jp/stations/views/19568",
      "memo": "巨大モビルスーツ。手作りアイス50円引（特典）",
      "lat": 35.056068,
      "lng": 133.9229266
    },
    {
      "pref": "山口",
      "city": "美祢市",
      "name": "道の駅 みとう",
      "addr": "山口県美祢市美東町大田近光5480-1",
      "pt": 3,
      "category": "shitei",
      "url": "https://www.michi-no-eki.jp/stations/views/19601",
      "memo": "河川親水公園が隣接",
      "lat": 34.2176549,
      "lng": 131.3443027
    },
    {
      "pref": "徳島",
      "city": "美馬郡つるぎ町",
      "name": "道の駅 貞光ゆうゆう館",
      "addr": "徳島県美馬郡つるぎ町貞光字大須賀11-1",
      "pt": 3,
      "category": "shitei",
      "url": "https://www.michi-no-eki.jp/stations/views/19612",
      "memo": "吉野川を望む絶景",
      "lat": 34.042626,
      "lng": 134.0600296
    },
    {
      "pref": "香川",
      "city": "綾歌郡綾川町",
      "name": "道の駅 滝宮",
      "addr": "香川県綾歌郡綾川町滝宮字川西1578",
      "pt": 3,
      "category": "shitei",
      "url": "https://www.michi-no-eki.jp/stations/views/19636",
      "memo": "うどん発祥の地。テーブルコーヒー50円引（特典）",
      "lat": 34.2504194,
      "lng": 133.9168992
    },
    {
      "pref": "高知",
      "city": "南国市",
      "name": "道の駅 南国風良里",
      "addr": "高知県南国市左右山102-1",
      "pt": 3,
      "category": "shitei",
      "url": "https://www.michi-no-eki.jp/stations/views/19678",
      "memo": "26年2月リニューアル。ミレービスケット進呈（特典）",
      "lat": 33.6111015,
      "lng": 133.6420861
    },
    {
      "pref": "愛媛",
      "city": "新居浜市",
      "name": "道の駅 マイントピア別子",
      "addr": "愛媛県新居浜市立川町707-3",
      "pt": 3,
      "category": "shitei",
      "url": "https://www.michi-no-eki.jp/stations/views/19646",
      "memo": "別子銅山跡。HADEBAソフト全品100円引（特典）",
      "lat": 33.9014696,
      "lng": 133.3095103
    },
    {
      "pref": "福岡",
      "city": "みやま市",
      "name": "道の駅 みやま",
      "addr": "福岡県みやま市瀬高町大江2328",
      "pt": 3,
      "category": "shitei",
      "url": "https://www.michi-no-eki.jp/stations/views/19709",
      "memo": "筑後の豊かな実り",
      "lat": 33.1473998,
      "lng": 130.4839524
    },
    {
      "pref": "佐賀",
      "city": "嬉野市",
      "name": "道の駅 うれしの まるく",
      "addr": "佐賀県嬉野市嬉野町大字下宿甲4766-1",
      "pt": 3,
      "category": "shitei",
      "url": "https://www.michi-no-eki.jp/stations/views/21779",
      "memo": "22年西九州新幹線開業にあわせてオープン",
      "lat": 33.1067082,
      "lng": 129.9971055
    },
    {
      "pref": "長崎",
      "city": "諫早市",
      "name": "道の駅 251いいもりじゃがーロード",
      "addr": "長崎県諫早市飯盛町上原1376番地",
      "pt": 3,
      "category": "shitei",
      "url": "https://www.michi-no-eki.jp/stations/views/22689",
      "memo": "25年11月オープン。現金のみ。カレーコロッケ50円引（特典）",
      "lat": 32.7856679,
      "lng": 130.0458537
    },
    {
      "pref": "宮崎",
      "city": "延岡市",
      "name": "道の駅 北川はゆま",
      "addr": "宮崎県延岡市北川町長井5751-1",
      "pt": 3,
      "category": "shitei",
      "url": "https://www.michi-no-eki.jp/stations/views/19776",
      "memo": "23年防災道の駅リニューアル",
      "lat": 32.666139,
      "lng": 131.704479
    },
    {
      "pref": "熊本",
      "city": "球磨郡錦町",
      "name": "道の駅 錦",
      "addr": "熊本県球磨郡錦町大字一武字浦田1544-1",
      "pt": 3,
      "category": "shitei",
      "url": "https://www.michi-no-eki.jp/stations/views/19742",
      "memo": "25年3月物産館増改築完了",
      "lat": 32.2056956,
      "lng": 130.8448614
    },
    {
      "pref": "大分",
      "city": "豊後大野市",
      "name": "道の駅 あさじ",
      "addr": "大分県豊後大野市朝地町板井迫1018-1",
      "pt": 3,
      "category": "shitei",
      "url": "https://www.michi-no-eki.jp/stations/views/19758",
      "memo": "カボスサイダー。ソフト50円引（特典）",
      "lat": 33.0027708,
      "lng": 131.4479526
    },
    {
      "pref": "鹿児島",
      "city": "薩摩川内市",
      "name": "道の駅 樋脇",
      "addr": "鹿児島県薩摩川内市樋脇町市比野156",
      "pt": 3,
      "category": "shitei",
      "url": "https://www.michi-no-eki.jp/stations/views/19794",
      "memo": "20年リニューアル、古湯の街",
      "lat": 31.7964249,
      "lng": 130.4073944
    },
    {
      "pref": "沖縄",
      "city": "国頭郡宜野座村",
      "name": "道の駅 ぎのざ",
      "addr": "沖縄県国頭郡宜野座字漢那1633",
      "pt": 3,
      "category": "shitei",
      "url": "https://www.michi-no-eki.jp/stations/views/19820",
      "memo": "大型遊具が家族連れに人気",
      "lat": 26.4737348,
      "lng": 127.9520958
    },
    {
      "pref": "石川",
      "city": "珠洲市",
      "name": "道の駅 狼煙",
      "addr": "石川県珠洲市狼煙町テ部11",
      "pt": 3,
      "category": "fukko",
      "url": "https://www.michi-no-eki.jp/stations/views/19270",
      "memo": "5/23-26,5/29-31のみ営業。限定ステッカー（特典）",
      "lat": 37.52598100000001,
      "lng": 137.3244097
    },
    {
      "pref": "石川",
      "city": "珠洲市",
      "name": "道の駅 すずなり",
      "addr": "石川県珠洲市野々江町シ-15",
      "pt": 3,
      "category": "fukko",
      "url": "https://www.michi-no-eki.jp/stations/views/19271",
      "memo": "揚げ浜式製塩ソフト。ソフト100円引（特典）",
      "lat": 37.4414395,
      "lng": 137.2701412
    },
    {
      "pref": "石川",
      "city": "珠洲市",
      "name": "道の駅 すず塩田村",
      "addr": "石川県珠洲市清水町1-58-1",
      "pt": 3,
      "category": "fukko",
      "url": "https://www.michi-no-eki.jp/stations/views/19266",
      "memo": "昨年3月営業再開、奥能登揚げ浜塩",
      "lat": 37.4863263,
      "lng": 137.113052
    },
    {
      "pref": "石川",
      "city": "輪島市",
      "name": "道の駅 赤神",
      "addr": "石川県輪島市門前町赤神壱110",
      "pt": 3,
      "category": "fukko",
      "url": "https://www.michi-no-eki.jp/stations/views/19256",
      "memo": "輪島塗コーヒーカップ、ステッカー（特典）",
      "lat": 37.2481019,
      "lng": 136.7099334
    },
    {
      "pref": "石川",
      "city": "輪島市",
      "name": "道の駅 輪島",
      "addr": "石川県輪島市河井町20-1-131",
      "pt": 3,
      "category": "fukko",
      "url": "https://www.michi-no-eki.jp/stations/views/19258",
      "memo": "駐車場少。ソフトアイス100円引（特典）",
      "lat": 37.3889151,
      "lng": 136.9062728
    },
    {
      "pref": "石川",
      "city": "輪島市",
      "name": "道の駅 のと里山空港",
      "addr": "石川県輪島市三井町洲衛10-11-1",
      "pt": 3,
      "category": "fukko",
      "url": "https://www.michi-no-eki.jp/stations/views/19262",
      "memo": "震災以降駐車可能台数減。1000円以上でステッカー（特典）",
      "lat": 37.2955094,
      "lng": 136.9575851
    },
    {
      "pref": "石川",
      "city": "輪島市",
      "name": "道の駅 千枚田ポケットパーク",
      "addr": "石川県輪島市白米町ハ部99-5",
      "pt": 3,
      "category": "fukko",
      "url": "https://www.michi-no-eki.jp/stations/views/19250",
      "memo": "世界農業遺産 白米千枚田。金土日のみ営業",
      "lat": 37.4241334,
      "lng": 136.9980605
    },
    {
      "pref": "石川",
      "city": "鳳珠郡能登町",
      "name": "道の駅 桜峠",
      "addr": "石川県鳳珠郡能登町字当目2-24-24",
      "pt": 3,
      "category": "fukko",
      "url": "https://www.michi-no-eki.jp/stations/views/19253",
      "memo": "ブルーベリーソフト。ソフト50円引（特典）",
      "lat": 37.3317669,
      "lng": 137.0111746
    },
    {
      "pref": "石川",
      "city": "七尾市",
      "name": "道の駅 なかじまロマン峠",
      "addr": "石川県七尾市中島町中島二部1-19",
      "pt": 3,
      "category": "fukko",
      "url": "https://www.michi-no-eki.jp/stations/views/19255",
      "lat": 37.1305,
      "lng": 136.8634,
      "memo": "中島菜ソフト。5%引き（特典）"
    },
    {
      "pref": "石川",
      "city": "七尾市",
      "name": "道の駅 いおり",
      "addr": "石川県七尾市庵町笹ヶ谷内3-1",
      "pt": 3,
      "category": "fukko",
      "url": "https://www.michi-no-eki.jp/stations/views/19252",
      "memo": "富山湾越し立山連峰の絶景。お餅とお茶（特典）",
      "lat": 37.0283689,
      "lng": 137.0470699
    },
    {
      "pref": "石川",
      "city": "七尾市",
      "name": "道の駅 能登食祭市場",
      "addr": "石川県七尾市府中町員外13-1",
      "pt": 3,
      "category": "fukko",
      "url": "https://www.michi-no-eki.jp/stations/views/19268",
      "lat": 37.0489,
      "lng": 136.9688,
      "memo": "5/26休館。ミニジェラート100円引（特典）"
    },
    {
      "pref": "石川",
      "city": "鳳珠郡穴水町",
      "name": "道の駅 あなみず",
      "addr": "石川県鳳珠郡穴水町字大町チ41-6",
      "pt": 3,
      "category": "fukko",
      "url": "https://www.michi-no-eki.jp/stations/views/19848",
      "memo": "遠藤関グッズ、能登のお土産",
      "lat": 37.2282678,
      "lng": 136.9046856
    },
    {
      "pref": "石川",
      "city": "鹿島郡中能登町",
      "name": "道の駅 織姫の里なかのと",
      "addr": "石川県鹿島郡中能登町井田ぬ部10-1",
      "pt": 3,
      "category": "fukko",
      "url": "https://www.michi-no-eki.jp/stations/views/19272",
      "lat": 36.9698,
      "lng": 136.9048,
      "memo": "手作り総菜、珍しい地元野菜"
    },
    {
      "pref": "石川",
      "city": "羽咋郡志賀町",
      "name": "道の駅 とぎ海街道",
      "addr": "石川県羽咋郡志賀町富来領家町タ2-11",
      "pt": 3,
      "category": "fukko",
      "url": "https://www.michi-no-eki.jp/stations/views/19257",
      "lat": 37.1402,
      "lng": 136.7253,
      "memo": "世界一長いベンチ。ソフト50円引（特典）"
    },
    {
      "pref": "石川",
      "city": "羽咋郡志賀町",
      "name": "道の駅 ころ柿の里しか",
      "addr": "石川県羽咋郡志賀町末吉新保向10",
      "pt": 3,
      "category": "fukko",
      "url": "https://www.michi-no-eki.jp/stations/views/19259",
      "lat": 37.007,
      "lng": 136.7798,
      "memo": "ころ柿ソフト。限定ステッカー（特典）"
    },
    {
      "pref": "石川",
      "city": "河北郡内灘町",
      "name": "道の駅 内灘サンセットパーク",
      "addr": "石川県河北郡内灘町字大学1-4-1",
      "pt": 3,
      "category": "fukko",
      "url": "https://www.michi-no-eki.jp/stations/views/19267",
      "lat": 36.6589,
      "lng": 136.6492,
      "memo": "石川のこだわり商品"
    },
    {
      "pref": "富山",
      "city": "氷見市",
      "name": "道の駅 氷見",
      "addr": "富山県氷見市北大町25-5",
      "pt": 3,
      "category": "fukko",
      "url": "https://www.michi-no-eki.jp/stations/views/19247",
      "lat": 36.864,
      "lng": 136.9873,
      "memo": "30店舗。岩ガキ100円引、多数特典あり"
    },
    {
      "pref": "新潟",
      "city": "糸魚川市",
      "name": "道の駅 マリンドリーム能生",
      "addr": "新潟県糸魚川市大字能生小泊3596-2",
      "pt": 3,
      "category": "fukko",
      "url": "https://www.michi-no-eki.jp/stations/views/19204",
      "memo": "ベニズワイガニ直売のかにや横丁。ガム進呈（特典）",
      "lat": 37.1136406,
      "lng": 138.0044408
    },
    {
      "pref": "岐阜",
      "city": "飛騨市",
      "name": "道の駅 宙ドーム・神岡",
      "addr": "岐阜県飛騨市神岡町夕陽ヶ丘6",
      "pt": 2,
      "category": "kyoryoku",
      "url": "https://www.michi-no-eki.jp/stations/views/19331",
      "memo": "SSTR応援ステッカー1500枚限定配布（特典）",
      "lat": 36.3289526,
      "lng": 137.307188
    },
    {
      "pref": "鳥取",
      "city": "八頭郡八頭町",
      "name": "道の駅 はっとう",
      "addr": "鳥取県八頭郡八頭町徳丸625",
      "pt": 2,
      "category": "kyoryoku",
      "url": "https://www.michi-no-eki.jp/stations/views/19520",
      "memo": "ソフト/アイス/マイフライのいずれか進呈（特典）",
      "lat": 35.36647749999999,
      "lng": 134.3396512
    },
    {
      "pref": "兵庫",
      "city": "神崎郡神河町",
      "name": "道の駅 銀の馬車道・神河",
      "addr": "兵庫県神崎郡神河町吉冨88-10",
      "pt": 2,
      "category": "kyoryoku",
      "url": "https://www.michi-no-eki.jp/stations/views/19894",
      "memo": "5/23-30 ソフト50円引/ゆず寒天50円引（特典）",
      "lat": 35.0911946,
      "lng": 134.7781179
    },
    {
      "pref": "岐阜",
      "city": "郡上市",
      "name": "道の駅 明宝 (磨墨の里)",
      "addr": "岐阜県郡上市明宝大谷1015",
      "pt": 2,
      "category": "kyoryoku",
      "url": "https://www.michi-no-eki.jp/stations/views/19289",
      "memo": "せせらぎ明宝オートバイ神社ステッカー2026春（特典）",
      "lat": 35.845332,
      "lng": 137.0287977
    }
  ]
}